{"city": "Depok", "uzip": null, "countrycode": "ID", "country": "Indonesia", "longitude": "110.419485", "countycode": "", "county": "Sleman", "parent_id": "-1", "state": "D.I. Yogyakarta", "radius": 5000, "statecode": "", "latitude": "-7.783315", "postal": "", "id": "1645518", "aliases": ["depok", "depok indonesia", "depok, indonesia", "depok city", "depok, indonesia", "depok, jawa barat", "depok, indonesia", "kota kinabalu", "l a", "llanelli", "petersburg", "punto fijo", "salamanca, spain", "segovia", "soria"]}
{"city": "Mangaung", "uzip": "9301", "countrycode": "ZA", "country": "South Africa", "longitude": "26.225335", "countycode": "", "county": "Motheo", "parent_id": "1020860", "state": "Free State", "radius": 17900, "statecode": "", "latitude": "-29.113449", "postal": "", "id": "1018725", "aliases": ["bloemfontein", "bloemfontein, south africa"]}
{"city": "Compton", "uzip": "90220", "countrycode": "US", "country": "United States", "longitude": "-118.224329", "countycode": "", "county": "Los Angeles County", "parent_id": "-1", "state": "California", "radius": 5700, "statecode": "CA", "latitude": "33.895285", "postal": "", "id": "5339066", "aliases": ["compton, ca", "compton, california", "compton ca", "compton california", "compton, ca", "compton, california", "compton, ca", "compton, california"]}
{"city": "Mount Pleasant", "uzip": "48858", "countrycode": "US", "country": "United States", "longitude": "-84.775002", "countycode": "", "county": "Isabella County", "parent_id": "6530265", "state": "Michigan", "radius": 800, "statecode": "MI", "latitude": "43.591389", "postal": "48858", "id": "5002714", "aliases": ["central michigan university"]}
{"city": "Trenton", "uzip": "", "countrycode": "US", "country": "United States", "longitude": "-74.653816", "countycode": "", "county": "Mercer County", "parent_id": "6504240", "state": "New Jersey", "radius": 3100, "statecode": "NJ", "latitude": "40.227112", "postal": "", "id": "5105496", "aliases": ["ewing, new jersey", "ewing, nj", "ewing new jersey", "ewing nj", "ewing, new jersey", "ewing, nj", "ewing, new jersey", "ewing, nj", "hamilton, new jersey", "hamilton, nj", "hamilton new jersey", "hamilton nj", "hamilton, new jersey", "hamilton, nj", "hamilton, new jersey", "hamilton, nj", "trenton, new jersey", "trenton, nj", "trenton new jersey", "trenton nj", "trenton, new jersey", "trenton, nj", "trenton, new jersey", "trenton, nj"]}
{"city": "Fraser", "uzip": "48026", "countrycode": "US", "country": "United States", "longitude": "-82.949649", "countycode": "", "county": "Macomb County", "parent_id": "-1", "state": "Michigan", "radius": 2400, "statecode": "MI", "latitude": "42.537980", "postal": "", "id": "4993369", "aliases": ["fraser, mi", "fraser, michigan", "fraser mi", "fraser michigan", "fraser, mi", "fraser, michigan", "fraser, mi", "fraser, michigan"]}
{"city": "Montgomery", "uzip": "60538", "countrycode": "US", "country": "United States", "longitude": "-88.334864", "countycode": "", "county": "Kane County", "parent_id": "-1", "state": "Illinois", "radius": 32600, "statecode": "IL", "latitude": "41.729035", "postal": "", "id": "4902559", "aliases": ["montgomery, il", "montgomery, illinois", "montgomery il", "montgomery illinois", "montgomery, il", "montgomery, illinois", "montgomery, il", "montgomery, illinois"]}
{"city": "Temanggung", "uzip": null, "countrycode": "ID", "country": "Indonesia", "longitude": "110.158277", "countycode": "", "county": "Temanggung", "parent_id": "-1", "state": "Jawa Tengah", "radius": 2300, "statecode": "", "latitude": "-7.310704", "postal": "", "id": "1624238", "aliases": ["temanggung"]}
{"city": "Seattle", "uzip": "98104", "countrycode": "US", "country": "United States", "longitude": "-122.329439", "countycode": "", "county": "King County", "parent_id": "7153937", "state": "Washington", "radius": 26700, "statecode": "WA", "latitude": "47.603560", "postal": "", "id": "5809844", "aliases": ["rain city", "seattle", "seattle, wa", "seattle, washington", "seattle tacoma", "seattle wa", "seattle washington", "seattle, wa", "seattle, washington", "seattle, washington, usa", "seattle, wa", "seattle, washington", "west seattle"]}
{"city": "Cartersville", "uzip": "30120", "countrycode": "US", "country": "United States", "longitude": "-84.795699", "countycode": "", "county": "Bartow County", "parent_id": "4181812", "state": "Georgia", "radius": 12600, "statecode": "GA", "latitude": "34.165170", "postal": "", "id": "4186531", "aliases": ["cartersville", "cartersville, ga", "cartersville, georgia", "cartersville ga", "cartersville georgia", "cartersville, ga", "cartersville, georgia", "cartersville, ga", "cartersville, georgia"]}
{"city": "Radford", "uzip": "24141", "countrycode": "US", "country": "United States", "longitude": "-80.589964", "countycode": "", "county": "Radford City", "parent_id": "4785770", "state": "Virginia", "radius": 6600, "statecode": "VA", "latitude": "37.120690", "postal": "", "id": "4780837", "aliases": ["radford", "radford, va", "radford, virginia", "radford university", "radford va", "radford virginia", "radford, va", "radford, virginia", "radford, va", "radford, virginia"]}
{"city": "Menlo Park", "uzip": "94025", "countrycode": "US", "country": "United States", "longitude": "-122.177909", "countycode": "", "county": "San Mateo County", "parent_id": "5366589", "state": "California", "radius": 9800, "statecode": "CA", "latitude": "37.454697", "postal": "", "id": "5372223", "aliases": ["menlo park, ca", "menlo park, california", "menlo park ca", "menlo park california", "menlo park, ca", "menlo park, california", "menlo park, ca", "menlo park, california"]}
{"city": "Barcelona", "uzip": "08001", "countrycode": "ES", "country": "Spain", "longitude": "2.168745", "countycode": "B", "county": "Barcelona", "parent_id": "7627002", "state": "Catalonia", "radius": 11200, "statecode": "CT", "latitude": "41.385589", "postal": "", "id": "3128760", "aliases": ["barcelona", "barcelona, spain", "camp nou"]}
{"city": "Galesburg", "uzip": "61401", "countrycode": "US", "country": "United States", "longitude": "-90.364659", "countycode": "", "county": "Knox County", "parent_id": "6516582", "state": "Illinois", "radius": 6700, "statecode": "IL", "latitude": "40.946915", "postal": "", "id": "4893392", "aliases": ["galesburg, il", "galesburg, illinois", "galesburg il", "galesburg illinois", "galesburg, il", "galesburg, illinois", "galesburg, il", "galesburg, illinois"]}
{"city": "Lombard", "uzip": "60148", "countrycode": "US", "country": "United States", "longitude": "-88.011679", "countycode": "", "county": "Dupage County", "parent_id": "6511132", "state": "Illinois", "radius": 6700, "statecode": "IL", "latitude": "41.867545", "postal": "", "id": "4900373", "aliases": ["lombard, il", "lombard, illinois", "lombard il", "lombard illinois", "lombard, il", "lombard, illinois", "lombard, il", "lombard, illinois"]}
{"city": "Seremban", "uzip": "70200", "countrycode": "MY", "country": "Malaysia", "longitude": "101.942510", "countycode": "", "county": "Seremban", "parent_id": "1767391", "state": "Negri Sembilan", "radius": 2900, "statecode": "", "latitude": "2.715350", "postal": "", "id": "1734810", "aliases": ["seremban"]}
{"city": "Oxford", "uzip": "01540", "countrycode": "US", "country": "United States", "longitude": "-71.864679", "countycode": "", "county": "Worcester County", "parent_id": "-1", "state": "Massachusetts", "radius": 9000, "statecode": "MA", "latitude": "42.117600", "postal": "", "id": "4946546", "aliases": ["oxford, ma", "oxford, massachusetts", "oxford ma", "oxford massachusetts", "oxford, ma", "oxford, massachusetts", "oxford, ma", "oxford, massachusetts"]}
{"city": "Cirebon", "uzip": "", "countrycode": "ID", "country": "Indonesia", "longitude": "108.537354", "countycode": "", "county": "Cirebon Kabupaten", "parent_id": "6497507", "state": "West Java", "radius": 8000, "statecode": "", "latitude": "-6.721720", "postal": "", "id": "1646170", "aliases": ["cirebon"]}
{"city": "Menomonee Falls", "uzip": "53051", "countrycode": "US", "country": "United States", "longitude": "-88.103693", "countycode": "", "county": "Waukesha County", "parent_id": "-1", "state": "Wisconsin", "radius": 8400, "statecode": "WI", "latitude": "43.172305", "postal": "", "id": "5262630", "aliases": ["menomonee falls", "menomonee falls, wi", "menomonee falls, wisconsin", "menomonee falls wi", "menomonee falls wisconsin", "menomonee falls, wi", "menomonee falls, wisconsin", "menomonee falls, wi", "menomonee falls, wisconsin"]}
{"city": "Menomonie", "uzip": "54751", "countrycode": "US", "country": "United States", "longitude": "-91.929559", "countycode": "", "county": "Dunn County", "parent_id": "6506085", "state": "Wisconsin", "radius": 6500, "statecode": "WI", "latitude": "44.880500", "postal": "", "id": "5262634", "aliases": ["menomonie, wi", "menomonie, wisconsin", "menomonie wi", "menomonie wisconsin", "menomonie, wi", "menomonie, wisconsin", "menomonie, wi", "menomonie, wisconsin"]}
{"city": "Rockingham", "uzip": "28379", "countrycode": "US", "country": "United States", "longitude": "-79.774064", "countycode": "", "county": "Richmond County", "parent_id": "6506781", "state": "North Carolina", "radius": 4700, "statecode": "NC", "latitude": "34.935830", "postal": "", "id": "4488587", "aliases": ["rockingham, nc", "rockingham, north carolina", "rockingham nc", "rockingham north carolina", "rockingham, nc", "rockingham, north carolina", "rockingham, nc", "rockingham, north carolina"]}
{"city": "Kirkland", "uzip": "98033", "countrycode": "US", "country": "United States", "longitude": "-122.207244", "countycode": "", "county": "King County", "parent_id": "6492731", "state": "Washington", "radius": 8700, "statecode": "WA", "latitude": "47.678855", "postal": "", "id": "5799841", "aliases": ["kirkland, wa", "kirkland, washington", "kirkland wa", "kirkland washington", "kirkland, wa", "kirkland, washington", "kirkland, wa", "kirkland, washington", "kirkland"]}
{"city": "Kent", "uzip": "98032", "countrycode": "US", "country": "United States", "longitude": "-122.237419", "countycode": "", "county": "King County", "parent_id": "6519165", "state": "Washington", "radius": 14900, "statecode": "WA", "latitude": "47.380285", "postal": "", "id": "5799625", "aliases": ["kent, wa", "kent, washington", "kent wa", "kent washington", "kent, wa", "kent, washington", "kent, wa", "kent, washington"]}
{"city": "Bear", "uzip": "19701", "countrycode": "US", "country": "United States", "longitude": "-75.661145", "countycode": "", "county": "New Castle County", "parent_id": "6502070", "state": "Delaware", "radius": 4200, "statecode": "DE", "latitude": "39.626032", "postal": "", "id": "4141363", "aliases": ["bear, de", "bear, delaware", "bear de", "bear delaware", "bear, de", "bear, delaware", "bear, de", "bear, delaware"]}
{"city": "Livingston", "uzip": "07039", "countrycode": "US", "country": "United States", "longitude": "-74.317414", "countycode": "", "county": "Essex County", "parent_id": "6481746", "state": "New Jersey", "radius": 5900, "statecode": "NJ", "latitude": "40.795495", "postal": "", "id": "5100572", "aliases": ["livingston, new jersey", "livingston, nj", "livingston new jersey", "livingston nj", "livingston, new jersey", "livingston, nj", "livingston, new jersey", "livingston, nj"]}
{"city": "Hazleton", "uzip": "18201", "countrycode": "US", "country": "United States", "longitude": "-75.976269", "countycode": "", "county": "Luzerne County", "parent_id": "6531327", "state": "Pennsylvania", "radius": 5000, "statecode": "PA", "latitude": "40.954620", "postal": "", "id": "5193011", "aliases": ["hazleton, pa", "hazleton, pennsylvania", "hazleton pa", "hazleton pennsylvania", "hazleton, pa", "hazleton, pennsylvania", "hazleton, pa", "hazleton, pennsylvania"]}
{"city": "Coatbridge", "uzip": "ML5 1", "countrycode": "GB", "country": "United Kingdom", "longitude": "-4.035839", "countycode": "", "county": "Lanarkshire", "parent_id": "-1", "state": "Scotland", "radius": 4600, "statecode": "SCT", "latitude": "55.858755", "postal": "", "id": "2652696", "aliases": ["coatbridge"]}
{"city": "Mentor", "uzip": "44060", "countrycode": "US", "country": "United States", "longitude": "-81.337269", "countycode": "", "county": "Lake County", "parent_id": "8063012", "state": "Ohio", "radius": 9000, "statecode": "OH", "latitude": "41.697995", "postal": "", "id": "5162645", "aliases": ["mentor, oh", "mentor, ohio", "mentor oh", "mentor ohio", "mentor, oh", "mentor, ohio", "mentor, oh", "mentor, ohio"]}
{"city": "Turin", "uzip": "10153", "countrycode": "IT", "country": "Italy", "longitude": "7.704935", "countycode": "TO", "county": "Turin", "parent_id": "3174702", "state": "Piedmont", "radius": 10600, "statecode": "", "latitude": "45.069680", "postal": "", "id": "3165524", "aliases": ["turin"]}
{"city": "Hutchinson", "uzip": "67501", "countrycode": "US", "country": "United States", "longitude": "-97.932674", "countycode": "", "county": "Reno County", "parent_id": "6528640", "state": "Kansas", "radius": 7800, "statecode": "KS", "latitude": "38.057260", "postal": "", "id": "4273299", "aliases": ["hutchinson", "hutchinson, kansas", "hutchinson, ks", "hutchinson kansas", "hutchinson ks", "hutchinson, kansas", "hutchinson, ks", "hutchinson, kansas", "hutchinson, ks"]}
{"city": "Riverside", "uzip": "92501", "countrycode": "US", "country": "United States", "longitude": "-117.373879", "countycode": "", "county": "Riverside County", "parent_id": "6530975", "state": "California", "radius": 14000, "statecode": "CA", "latitude": "33.981630", "postal": "", "id": "5387877", "aliases": ["riverside", "riverside, ca", "riverside, california", "riverside ca", "riverside california", "riverside, ca", "riverside, california", "riverside, ca", "riverside, california"]}
{"city": "Kirksville", "uzip": "63501", "countrycode": "US", "country": "United States", "longitude": "-92.571994", "countycode": "", "county": "Adair County", "parent_id": "6523927", "state": "Missouri", "radius": 7100, "statecode": "MO", "latitude": "40.194260", "postal": "", "id": "5055787", "aliases": ["kirksville, missouri", "kirksville, mo", "kirksville missouri", "kirksville mo", "kirksville, missouri", "kirksville, mo", "kirksville, missouri", "kirksville, mo"]}
{"city": "London", "uzip": "40741", "countrycode": "US", "country": "United States", "longitude": "-84.083774", "countycode": "", "county": "Laurel County", "parent_id": "6531216", "state": "Kentucky", "radius": 4900, "statecode": "KY", "latitude": "37.127175", "postal": "", "id": "4298960", "aliases": ["london, kentucky", "london, ky", "london kentucky", "london ky", "london, kentucky", "london, ky", "london, kentucky", "london, ky"]}
{"city": "Laurens", "uzip": "29360", "countrycode": "US", "country": "United States", "longitude": "-82.014810", "countycode": "", "county": "Laurens County", "parent_id": "-1", "state": "South Carolina", "radius": 5900, "statecode": "SC", "latitude": "34.499365", "postal": "", "id": "4584738", "aliases": ["laurens, sc", "laurens, south carolina", "laurens sc", "laurens south carolina", "laurens, sc", "laurens, south carolina", "laurens, sc", "laurens, south carolina"]}
{"city": "Secaucus", "uzip": "07094", "countrycode": "US", "country": "United States", "longitude": "-74.054964", "countycode": "", "county": "Hudson County", "parent_id": "6532344", "state": "New Jersey", "radius": 4400, "statecode": "NJ", "latitude": "40.788280", "postal": "", "id": "5104504", "aliases": ["secaucus, new jersey", "secaucus, nj", "secaucus new jersey", "secaucus nj", "secaucus, new jersey", "secaucus, nj", "secaucus, new jersey", "secaucus, nj"]}
{"city": "Oldenzaal", "uzip": "7571", "countrycode": "NL", "country": "The Netherlands", "longitude": "6.927277", "countycode": "OV", "county": "Overijssel", "parent_id": "2757024", "state": "", "radius": 4900, "statecode": "", "latitude": "52.309286", "postal": "", "id": "2749644", "aliases": ["oldenzaal"]}
{"city": "Germantown", "uzip": "38138", "countrycode": "US", "country": "United States", "longitude": "-89.806889", "countycode": "", "county": "Shelby County", "parent_id": "6508669", "state": "Tennessee", "radius": 6500, "statecode": "TN", "latitude": "35.097040", "postal": "", "id": "4624601", "aliases": ["germantown, tennessee", "germantown, tn", "germantown tennessee", "germantown tn", "germantown, tennessee", "germantown, tn", "germantown, tennessee", "germantown, tn"]}
{"city": "Merced", "uzip": "95340", "countrycode": "US", "country": "United States", "longitude": "-120.486199", "countycode": "", "county": "Merced County", "parent_id": "6530395", "state": "California", "radius": 10200, "statecode": "CA", "latitude": "37.301270", "postal": "", "id": "5372253", "aliases": ["merced", "merced, ca", "merced, california", "merced ca", "merced california", "merced, ca", "merced, california", "merced, ca", "merced, california"]}
{"city": "Sungai Petani", "uzip": "08000", "countrycode": "MY", "country": "Malaysia", "longitude": "100.497880", "countycode": "", "county": "Kuala Muda", "parent_id": "-1", "state": "Kedah", "radius": 1400, "statecode": "", "latitude": "5.673300", "postal": "", "id": "1735498", "aliases": ["sungai petani"]}
{"city": "Guelph", "uzip": "N1H", "countrycode": "CA", "country": "Canada", "longitude": "-80.247874", "countycode": "", "county": "Wellington", "parent_id": "6531579", "state": "Ontario", "radius": 9700, "statecode": "ON", "latitude": "43.544565", "postal": "", "id": "5967629", "aliases": ["guelph, canada", "guelph, on", "guelph, ontario"]}
{"city": "Londonderry", "uzip": "03053", "countrycode": "US", "country": "United States", "longitude": "-71.374787", "countycode": "", "county": "Rockingham County", "parent_id": "6499126", "state": "New Hampshire", "radius": 11300, "statecode": "NH", "latitude": "42.866385", "postal": "", "id": "5088905", "aliases": ["londonderry"]}
{"city": "Batesville", "uzip": "38606", "countrycode": "US", "country": "United States", "longitude": "-89.953372", "countycode": "", "county": "Panola County", "parent_id": "6513419", "state": "Mississippi", "radius": 6100, "statecode": "MS", "latitude": "34.317215", "postal": "", "id": "4417130", "aliases": ["batesville, mississippi", "batesville, ms", "batesville mississippi", "batesville ms", "batesville, mississippi", "batesville, ms", "batesville, mississippi", "batesville, ms"]}
{"city": "Orange", "uzip": "07050", "countrycode": "US", "country": "United States", "longitude": "-74.232419", "countycode": "", "county": "Essex County", "parent_id": "5097616", "state": "New Jersey", "radius": 3300, "statecode": "NJ", "latitude": "40.773245", "postal": "", "id": "5102213", "aliases": ["orange, new jersey", "orange, nj", "orange new jersey", "orange nj", "orange, new jersey", "orange, nj", "orange, new jersey", "orange, nj"]}
{"city": "Helsingfors", "uzip": "00100", "countrycode": "FI", "country": "Finland", "longitude": "24.932580", "countycode": "", "county": "", "parent_id": "8299801", "state": "Uusimaa", "radius": 30200, "statecode": "", "latitude": "60.171160", "postal": "", "id": "658225", "aliases": ["helsinki", "helsinki, finland"]}
{"city": "Edgewater", "uzip": "21037", "countrycode": "US", "country": "United States", "longitude": "-76.552803", "countycode": "", "county": "Anne Arundel County", "parent_id": "-1", "state": "Maryland", "radius": 700, "statecode": "MD", "latitude": "38.931900", "postal": "21037", "id": "4354072", "aliases": ["londontown"]}
{"city": "Craig", "uzip": "81625", "countrycode": "US", "country": "United States", "longitude": "-107.877059", "countycode": "", "county": "Moffat County", "parent_id": "6533178", "state": "Colorado", "radius": 1400, "statecode": "CO", "latitude": "40.532495", "postal": "", "id": "5576064", "aliases": ["el lay"]}
{"city": "Barnesville", "uzip": "30204", "countrycode": "US", "country": "United States", "longitude": "-84.152844", "countycode": "", "county": "Lamar County", "parent_id": "6511314", "state": "Georgia", "radius": 4600, "statecode": "GA", "latitude": "33.054565", "postal": "", "id": "4181110", "aliases": ["barnesville"]}
{"city": "Waterbury", "uzip": "06702", "countrycode": "US", "country": "United States", "longitude": "-73.046179", "countycode": "", "county": "New Haven County", "parent_id": "6490306", "state": "Connecticut", "radius": 8000, "statecode": "CT", "latitude": "41.554077", "postal": "", "id": "4845193", "aliases": ["waterbury", "waterbury, connecticut", "waterbury, ct", "waterbury connecticut", "waterbury ct", "waterbury, connecticut", "waterbury, ct", "waterbury, connecticut", "waterbury, ct"]}
{"city": "Oxford", "uzip": "27565", "countrycode": "US", "country": "United States", "longitude": "-78.588200", "countycode": "", "county": "Granville County", "parent_id": "6530364", "state": "North Carolina", "radius": 3800, "statecode": "NC", "latitude": "36.312000", "postal": "", "id": "4483745", "aliases": ["oxford, nc", "oxford, north carolina", "oxford nc", "oxford north carolina", "oxford, nc", "oxford, north carolina", "oxford, nc", "oxford, north carolina"]}
{"city": "Hammond", "uzip": "70403", "countrycode": "US", "country": "United States", "longitude": "-90.458444", "countycode": "", "county": "Tangipahoa Parish", "parent_id": "4321495", "state": "Louisiana", "radius": 6700, "statecode": "LA", "latitude": "30.504175", "postal": "", "id": "4326868", "aliases": ["hammond, la", "hammond, louisiana", "hammond la", "hammond louisiana", "hammond, la", "hammond, louisiana", "hammond, la", "hammond, louisiana"]}
{"city": "Hammond", "uzip": "46320", "countrycode": "US", "country": "United States", "longitude": "-87.508934", "countycode": "", "county": "Lake County", "parent_id": "6523400", "state": "Indiana", "radius": 10800, "statecode": "IN", "latitude": "41.605080", "postal": "", "id": "4921100", "aliases": ["hammond, in", "hammond, indiana", "hammond in", "hammond indiana", "hammond, in", "hammond, indiana", "hammond, in", "hammond, indiana"]}
{"city": "Mullica Hill", "uzip": "08062", "countrycode": "US", "country": "United States", "longitude": "-75.224773", "countycode": "", "county": "Gloucester County", "parent_id": "-1", "state": "New Jersey", "radius": 1900, "statecode": "NJ", "latitude": "39.738835", "postal": "", "id": "4503195", "aliases": ["mullica hill, new jersey", "mullica hill, nj", "mullica hill new jersey", "mullica hill nj", "mullica hill, new jersey", "mullica hill, nj", "mullica hill, new jersey", "mullica hill, nj"]}
{"city": "Ogden", "uzip": "66517", "countrycode": "US", "country": "United States", "longitude": "-96.735558", "countycode": "", "county": "Riley County", "parent_id": "-1", "state": "Kansas", "radius": 1500, "statecode": "KS", "latitude": "39.104172", "postal": "66517", "id": "4276588", "aliases": ["fort riley, kansas", "fort riley, ks", "fort riley kansas", "fort riley ks", "fort riley, kansas", "fort riley, ks", "fort riley, kansas", "fort riley, ks"]}
{"city": "Shelbyville", "uzip": "62565", "countrycode": "US", "country": "United States", "longitude": "-88.800114", "countycode": "", "county": "Shelby County", "parent_id": "-1", "state": "Illinois", "radius": 4900, "statecode": "IL", "latitude": "39.406610", "postal": "", "id": "4249857", "aliases": ["shelbyville"]}
{"city": "Lisle", "uzip": "60532", "countrycode": "US", "country": "United States", "longitude": "-88.071317", "countycode": "", "county": "Dupage County", "parent_id": "6510878", "state": "Illinois", "radius": 5700, "statecode": "IL", "latitude": "41.799010", "postal": "", "id": "4900080", "aliases": ["lisle, il", "lisle, illinois", "lisle il", "lisle illinois", "lisle, il", "lisle, illinois", "lisle, il", "lisle, illinois"]}
{"city": "Galt", "uzip": "95632", "countrycode": "US", "country": "United States", "longitude": "-121.300814", "countycode": "", "county": "Sacramento County", "parent_id": "6491878", "state": "California", "radius": 5300, "statecode": "CA", "latitude": "38.252745", "postal": "", "id": "5351428", "aliases": ["galt", "galt, ca", "galt, california", "galt ca", "galt california", "galt, ca", "galt, california", "galt, ca", "galt, california"]}
{"city": "Cary", "uzip": "60013", "countrycode": "US", "country": "United States", "longitude": "-88.254396", "countycode": "", "county": "McHenry County", "parent_id": "-1", "state": "Illinois", "radius": 5100, "statecode": "IL", "latitude": "42.204359", "postal": "", "id": "4886738", "aliases": ["cary"]}
{"city": "Cary", "uzip": "27513", "countrycode": "US", "country": "United States", "longitude": "-78.781169", "countycode": "", "county": "Wake County", "parent_id": "4499497", "state": "North Carolina", "radius": 14300, "statecode": "NC", "latitude": "35.789330", "postal": "", "id": "4459467", "aliases": ["cary, nc", "cary, north carolina", "cary nc", "cary north carolina", "cary, nc", "cary, north carolina", "cary, nc", "cary, north carolina"]}
{"city": "Akron", "uzip": "44308", "countrycode": "US", "country": "United States", "longitude": "-81.514059", "countycode": "", "county": "Summit County", "parent_id": "8062834", "state": "Ohio", "radius": 12800, "statecode": "OH", "latitude": "41.084195", "postal": "", "id": "5145476", "aliases": ["akron, oh", "akron, ohio", "akron oh", "akron ohio", "akron, oh", "akron, ohio", "akron, oh", "akron, ohio", "university of akron"]}
{"city": "Barrington", "uzip": "60010", "countrycode": "US", "country": "United States", "longitude": "-88.136044", "countycode": "", "county": "Cook County", "parent_id": "6480517", "state": "Illinois", "radius": 3400, "statecode": "IL", "latitude": "42.152855", "postal": "", "id": "4884116", "aliases": ["barrington, il", "barrington, illinois", "barrington il", "barrington illinois", "barrington, il", "barrington, illinois", "barrington, il", "barrington, illinois"]}
{"city": "North Tonawanda", "uzip": "14120", "countrycode": "US", "country": "United States", "longitude": "-78.869194", "countycode": "", "county": "Niagara County", "parent_id": "-1", "state": "New York", "radius": 5300, "statecode": "NY", "latitude": "43.028804", "postal": "", "id": "5129245", "aliases": ["north tonawanda", "north tonawanda, new york", "north tonawanda, ny", "north tonawanda new york", "north tonawanda ny", "north tonawanda, new york", "north tonawanda, ny", "north tonawanda, new york", "north tonawanda, ny"]}
{"city": "Woodland Hills", "uzip": "91364", "countrycode": "US", "country": "United States", "longitude": "-118.610921", "countycode": "", "county": "Los Angeles County", "parent_id": "6504643", "state": "California", "radius": 3600, "statecode": "CA", "latitude": "34.168807", "postal": "", "id": "5410438", "aliases": ["woodland hills", "woodland hills, ca", "woodland hills, california", "woodland hills ca", "woodland hills california", "woodland hills, ca", "woodland hills, california", "woodland hills, ca", "woodland hills, california"]}
{"city": "Galveston", "uzip": "77550", "countrycode": "US", "country": "United States", "longitude": "-94.807909", "countycode": "", "county": "Galveston County", "parent_id": "6531076", "state": "Texas", "radius": 22600, "statecode": "TX", "latitude": "29.295325", "postal": "", "id": "4692883", "aliases": ["galveston, texas", "galveston, tx", "galveston texas", "galveston tx", "galveston, texas", "galveston, tx", "galveston, texas", "galveston, tx"]}
{"city": "Ramsgate", "uzip": "CT11 8", "countrycode": "GB", "country": "United Kingdom", "longitude": "1.421934", "countycode": "KEN", "county": "Kent", "parent_id": "6467513", "state": "England", "radius": 3100, "statecode": "ENG", "latitude": "51.332586", "postal": "", "id": "2639660", "aliases": ["ramsgate, kent", "ramsgate, kent, united kingdom"]}
{"city": "Orange Park", "uzip": "32073", "countrycode": "US", "country": "United States", "longitude": "-81.701154", "countycode": "", "county": "Clay County", "parent_id": "6520253", "state": "Florida", "radius": 4400, "statecode": "FL", "latitude": "30.165065", "postal": "", "id": "4167102", "aliases": ["orange park, fl", "orange park, florida", "orange park fl", "orange park florida", "orange park, fl", "orange park, florida", "orange park, fl", "orange park, florida"]}
{"city": "Rockwall", "uzip": "75087", "countrycode": "US", "country": "United States", "longitude": "-96.460764", "countycode": "", "county": "Rockwall County", "parent_id": "6505803", "state": "Texas", "radius": 7400, "statecode": "TX", "latitude": "32.931045", "postal": "", "id": "4723406", "aliases": ["rockwall", "rockwall, texas", "rockwall, tx", "rockwall texas", "rockwall tx", "rockwall, texas", "rockwall, tx", "rockwall, texas", "rockwall, tx"]}
{"city": "Concord", "uzip": "28025", "countrycode": "US", "country": "United States", "longitude": "-80.580686", "countycode": "", "county": "Cabarrus County", "parent_id": "6530979", "state": "North Carolina", "radius": 18300, "statecode": "NC", "latitude": "35.409976", "postal": "", "id": "4461574", "aliases": ["concord, nc", "concord, north carolina", "concord nc", "concord north carolina", "concord, nc", "concord, north carolina", "concord, nc", "concord, north carolina"]}
{"city": "Concord", "uzip": "94519", "countrycode": "US", "country": "United States", "longitude": "-122.025196", "countycode": "", "county": "Contra Costa County", "parent_id": "6525912", "state": "California", "radius": 8200, "statecode": "CA", "latitude": "37.980816", "postal": "", "id": "5339111", "aliases": ["concord, ca", "concord, california", "concord ca", "concord california", "concord, ca", "concord, california", "concord, ca", "concord, california"]}
{"city": "Orangeburg", "uzip": "29115", "countrycode": "US", "country": "United States", "longitude": "-80.864719", "countycode": "", "county": "Orangeburg County", "parent_id": "4601324", "state": "South Carolina", "radius": 6000, "statecode": "SC", "latitude": "33.489350", "postal": "", "id": "4590184", "aliases": ["orangeburg, sc", "orangeburg, south carolina", "orangeburg sc", "orangeburg south carolina", "orangeburg, sc", "orangeburg, south carolina", "orangeburg, sc", "orangeburg, south carolina"]}
{"city": "Toledo", "uzip": "62468", "countrycode": "US", "country": "United States", "longitude": "-88.244322", "countycode": "", "county": "Cumberland County", "parent_id": "-1", "state": "Illinois", "radius": 1800, "statecode": "IL", "latitude": "39.272384", "postal": "", "id": "4251330", "aliases": ["toledo"]}
{"city": "Ballarat", "uzip": "", "countrycode": "AU", "country": "Australia", "longitude": "143.847137", "countycode": "", "county": "City of Ballarat", "parent_id": "8348981", "state": "Victoria", "radius": 13500, "statecode": "VIC", "latitude": "-37.562351", "postal": "", "id": "2177091", "aliases": ["ballarat, australia"]}
{"city": "Magetan", "uzip": null, "countrycode": "ID", "country": "Indonesia", "longitude": "111.330651", "countycode": "", "county": "Magetan", "parent_id": "-1", "state": "Jawa Timur", "radius": 1100, "statecode": "", "latitude": "-7.654357", "postal": "", "id": "1636878", "aliases": ["magetan"]}
{"city": "Toledo", "uzip": "43604", "countrycode": "US", "country": "United States", "longitude": "-83.536259", "countycode": "", "county": "Lucas County", "parent_id": "5174947", "state": "Ohio", "radius": 15200, "statecode": "OH", "latitude": "41.653810", "postal": "", "id": "5174035", "aliases": ["toledo, oh", "toledo, ohio", "toledo oh", "toledo ohio", "toledo, oh", "toledo, ohio", "toledo, oh", "toledo, ohio"]}
{"city": "Colchester", "uzip": "CO2 7", "countrycode": "GB", "country": "United Kingdom", "longitude": "0.903514", "countycode": "ESS", "county": "Essex", "parent_id": "6530766", "state": "England", "radius": 8800, "statecode": "ENG", "latitude": "51.885300", "postal": "", "id": "2652618", "aliases": ["colchester essex", "colchester, essex", "colchester, essex, uk", "colchester, essex, united kingdom"]}
{"city": "Kissimmee", "uzip": "34741", "countrycode": "US", "country": "United States", "longitude": "-81.406744", "countycode": "", "county": "Osceola County", "parent_id": "6531071", "state": "Florida", "radius": 17000, "statecode": "FL", "latitude": "28.294430", "postal": "", "id": "4160983", "aliases": ["kissimmee", "kissimmee, fl", "kissimmee, florida", "kissimmee fl", "kissimmee florida", "kissimmee, fl", "kissimmee, florida", "kissimmee, fl", "kissimmee, florida", "poinciana"]}
{"city": "", "uzip": "", "countrycode": "GB", "country": "United Kingdom", "longitude": "-6.812860", "countycode": "", "county": "", "parent_id": "11353077", "state": "Northern Ireland", "radius": 153900, "statecode": "NIR", "latitude": "54.667000", "postal": "", "id": "2641364", "aliases": ["northern ireland", "northern ireland, uk"]}
{"city": "Wendell", "uzip": "27591", "countrycode": "US", "country": "United States", "longitude": "-78.370324", "countycode": "", "county": "Wake County", "parent_id": "4478838", "state": "North Carolina", "radius": 9300, "statecode": "NC", "latitude": "35.784435", "postal": "", "id": "4498084", "aliases": ["wendell, nc", "wendell, north carolina", "wendell nc", "wendell north carolina", "wendell, nc", "wendell, north carolina", "wendell, nc", "wendell, north carolina"]}
{"city": "Meriden", "uzip": "06450", "countrycode": "US", "country": "United States", "longitude": "-72.797845", "countycode": "", "county": "New Haven County", "parent_id": "6531986", "state": "Connecticut", "radius": 6500, "statecode": "CT", "latitude": "41.536285", "postal": "", "id": "4838524", "aliases": ["meriden", "meriden, connecticut", "meriden, ct", "meriden connecticut", "meriden ct", "meriden, connecticut", "meriden, ct", "meriden, connecticut", "meriden, ct"]}
{"city": "Casa Grande", "uzip": "85122", "countrycode": "US", "country": "United States", "longitude": "-111.750324", "countycode": "", "county": "Pinal County", "parent_id": "6530461", "state": "Arizona", "radius": 13600, "statecode": "AZ", "latitude": "32.879545", "postal": "", "id": "5288636", "aliases": ["casa grande", "casa grande, arizona", "casa grande, az", "casa grande arizona", "casa grande az", "casa grande, arizona", "casa grande, az", "casa grande, arizona", "casa grande, az"]}
{"city": "South Orange", "uzip": "07079", "countrycode": "US", "country": "United States", "longitude": "-74.258259", "countycode": "", "county": "Essex County", "parent_id": "-1", "state": "New Jersey", "radius": 2900, "statecode": "NJ", "latitude": "40.747345", "postal": "", "id": "5104836", "aliases": ["south orange, new jersey", "south orange, nj", "south orange new jersey", "south orange nj", "south orange, new jersey", "south orange, nj", "south orange, new jersey", "south orange, nj"]}
{"city": "Buies Creek", "uzip": "27506", "countrycode": "US", "country": "United States", "longitude": "-78.738831", "countycode": "", "county": "Harnett County", "parent_id": "-1", "state": "North Carolina", "radius": 2800, "statecode": "NC", "latitude": "35.407040", "postal": "27506", "id": "4458033", "aliases": ["buies creek", "buies creek, nc", "buies creek, north carolina", "buies creek nc", "buies creek north carolina", "buies creek, nc", "buies creek, north carolina", "buies creek, nc", "buies creek, north carolina"]}
{"city": "El Dorado", "uzip": "67042", "countrycode": "US", "country": "United States", "longitude": "-96.849799", "countycode": "", "county": "Butler County", "parent_id": "6509708", "state": "Kansas", "radius": 4200, "statecode": "KS", "latitude": "37.816950", "postal": "", "id": "4270863", "aliases": ["el dorado, kansas", "el dorado, ks", "el dorado kansas", "el dorado ks", "el dorado, kansas", "el dorado, ks", "el dorado, kansas", "el dorado, ks"]}
{"city": "Barnwell", "uzip": "29812", "countrycode": "US", "country": "United States", "longitude": "-81.365737", "countycode": "", "county": "Barnwell County", "parent_id": "6480552", "state": "South Carolina", "radius": 4000, "statecode": "SC", "latitude": "33.243979", "postal": "", "id": "4570015", "aliases": ["barnwell, sc", "barnwell, south carolina", "barnwell sc", "barnwell south carolina", "barnwell, sc", "barnwell, south carolina", "barnwell, sc", "barnwell, south carolina"]}
{"city": "Yorkton", "uzip": "S3N", "countrycode": "CA", "country": "Canada", "longitude": "-102.449874", "countycode": "SK", "county": "Saskatchewan", "parent_id": "6526202", "state": "Saskatchewan", "radius": 5300, "statecode": "SK", "latitude": "51.204055", "postal": "", "id": "6185607", "aliases": ["yorkton"]}
{"city": "Emeryville", "uzip": "94608", "countrycode": "US", "country": "United States", "longitude": "-122.302084", "countycode": "", "county": "Alameda County", "parent_id": "6526512", "state": "California", "radius": 2800, "statecode": "CA", "latitude": "37.837170", "postal": "", "id": "5346462", "aliases": ["emeryville, ca", "emeryville, california", "emeryville ca", "emeryville california", "emeryville, ca", "emeryville, california", "emeryville, ca", "emeryville, california"]}
{"city": "Stafford", "uzip": "77477", "countrycode": "US", "country": "United States", "longitude": "-95.557059", "countycode": "", "county": "Fort Bend County", "parent_id": "6523947", "state": "Texas", "radius": 4200, "statecode": "TX", "latitude": "29.614795", "postal": "", "id": "4734005", "aliases": ["stafford, texas", "stafford, tx", "stafford texas", "stafford tx", "stafford, texas", "stafford, tx", "stafford, texas", "stafford, tx"]}
{"city": "Meridian", "uzip": "39301", "countrycode": "US", "country": "United States", "longitude": "-88.703079", "countycode": "", "county": "Lauderdale County", "parent_id": "6532599", "state": "Mississippi", "radius": 14600, "statecode": "MS", "latitude": "32.365085", "postal": "", "id": "4435764", "aliases": ["meridian, mississippi", "meridian, ms", "meridian mississippi", "meridian ms", "meridian, mississippi", "meridian, ms", "meridian, mississippi", "meridian, ms"]}
{"city": "Meridian", "uzip": "83642", "countrycode": "US", "country": "United States", "longitude": "-116.392564", "countycode": "", "county": "Ada County", "parent_id": "6531222", "state": "Idaho", "radius": 7300, "statecode": "ID", "latitude": "43.611025", "postal": "", "id": "5600685", "aliases": ["meridian, id", "meridian, idaho", "meridian id", "meridian idaho", "meridian, id", "meridian, idaho", "meridian, id", "meridian, idaho"]}
{"city": "Stafford", "uzip": "06076", "countrycode": "US", "country": "United States", "longitude": "-72.286264", "countycode": "", "county": "Tolland County", "parent_id": "-1", "state": "Connecticut", "radius": 11300, "statecode": "CT", "latitude": "41.986800", "postal": "", "id": "4843553", "aliases": ["stafford"]}
{"city": "District Heights", "uzip": "20747", "countrycode": "US", "country": "United States", "longitude": "-76.881636", "countycode": "", "county": "Prince George's County", "parent_id": "-1", "state": "Maryland", "radius": 1600, "statecode": "MD", "latitude": "38.860844", "postal": "", "id": "4353463", "aliases": ["district heights", "district heights, maryland", "district heights, md", "district heights maryland", "district heights md", "district heights, maryland", "district heights, md", "district heights, maryland", "district heights, md", "forestville, maryland", "forestville, md", "forestville maryland", "forestville md", "forestville, maryland", "forestville, md", "forestville, maryland", "forestville, md"]}
{"city": "Wonosobo", "uzip": null, "countrycode": "ID", "country": "Indonesia", "longitude": "109.904202", "countycode": "", "county": "Wonosobo", "parent_id": "-1", "state": "Jawa Tengah", "radius": 1700, "statecode": "", "latitude": "-7.354287", "postal": "", "id": "1621395", "aliases": ["wonosobo"]}
{"city": "Toowoomba", "uzip": "4350", "countrycode": "AU", "country": "Australia", "longitude": "151.953293", "countycode": "", "county": "Toowoomba Regional", "parent_id": "8349351", "state": "Queensland", "radius": 14000, "statecode": "QLD", "latitude": "-27.561449", "postal": "4350", "id": "2146268", "aliases": ["toowoomba"]}
{"city": "Groton", "uzip": "06340", "countrycode": "US", "country": "United States", "longitude": "-72.070744", "countycode": "", "county": "New London County", "parent_id": "6518030", "state": "Connecticut", "radius": 6600, "statecode": "CT", "latitude": "41.354845", "postal": "", "id": "4835461", "aliases": ["groton, connecticut", "groton, ct", "groton connecticut", "groton ct", "groton, connecticut", "groton, ct", "groton, connecticut", "groton, ct"]}
{"city": "Hampton", "uzip": "30228", "countrycode": "US", "country": "United States", "longitude": "-84.282957", "countycode": "", "county": "Henry County", "parent_id": "4231796", "state": "Georgia", "radius": 3500, "statecode": "GA", "latitude": "33.387720", "postal": "", "id": "4198972", "aliases": ["hampton, ga", "hampton, georgia", "hampton ga", "hampton georgia", "hampton, ga", "hampton, georgia", "hampton, ga", "hampton, georgia"]}
{"city": "Hampton", "uzip": "71744", "countrycode": "US", "country": "United States", "longitude": "-92.470114", "countycode": "", "county": "Calhoun County", "parent_id": "-1", "state": "Arkansas", "radius": 2100, "statecode": "AR", "latitude": "33.537990", "postal": "", "id": "4113647", "aliases": ["hampton"]}
{"city": "Wellington", "uzip": null, "countrycode": "NZ", "country": "New Zealand", "longitude": "174.767121", "countycode": "", "county": "Wellington City", "parent_id": "10173827", "state": "Wellington", "radius": 12000, "statecode": "WGN", "latitude": "-41.280515", "postal": "", "id": "2179537", "aliases": ["wellington", "wellington new zealand", "wellington nz", "wellington, new zealand", "wellington, nz"]}
{"city": "Hampton", "uzip": "23669", "countrycode": "US", "country": "United States", "longitude": "-76.345119", "countycode": "", "county": "Hampton City", "parent_id": "6529568", "state": "Virginia", "radius": 16300, "statecode": "VA", "latitude": "37.027795", "postal": "", "id": "4762894", "aliases": ["hampton, va", "hampton, virginia", "hampton university", "hampton va", "hampton virginia", "hampton, va", "hampton, virginia", "hampton, va", "hampton, virginia"]}
{"city": "Neptune", "uzip": "", "countrycode": "US", "country": "United States", "longitude": "-74.035858", "countycode": "", "county": "Monmouth County", "parent_id": "-1", "state": "New Jersey", "radius": 5300, "statecode": "NJ", "latitude": "40.209709", "postal": "", "id": "5101687", "aliases": ["neptune", "neptune, new jersey", "neptune, nj", "neptune new jersey", "neptune nj", "neptune, new jersey", "neptune, nj", "neptune, new jersey", "neptune, nj"]}
{"city": "Watsonville", "uzip": "95076", "countrycode": "US", "country": "United States", "longitude": "-121.755164", "countycode": "", "county": "Santa Cruz County", "parent_id": "5345633", "state": "California", "radius": 5400, "statecode": "CA", "latitude": "36.908715", "postal": "", "id": "5407529", "aliases": ["watsonville, ca", "watsonville, california", "watsonville ca", "watsonville california", "watsonville, ca", "watsonville, california", "watsonville, ca", "watsonville, california"]}
{"city": "Waterloo", "uzip": "50701", "countrycode": "US", "country": "United States", "longitude": "-92.342155", "countycode": "", "county": "Black Hawk County", "parent_id": "6523703", "state": "Iowa", "radius": 12400, "statecode": "IA", "latitude": "42.493104", "postal": "", "id": "4880889", "aliases": ["waterloo, ia", "waterloo, iowa", "waterloo ia", "waterloo iowa", "waterloo, ia", "waterloo, iowa", "waterloo, ia", "waterloo, iowa"]}
{"city": "Los Angeles", "uzip": "90033", "countrycode": "US", "country": "United States", "longitude": "-118.207367", "countycode": "", "county": "Los Angeles County", "parent_id": "5356982", "state": "California", "radius": 3500, "statecode": "CA", "latitude": "34.047501", "postal": "90033", "id": "5368361", "aliases": ["baldwin hills", "boyle heights", "california, la", "california, los angeles", "city of angels", "city of angels, ca", "east los angeles", "east los angeles, ca", "east los angeles, california", "east los angeles ca", "east los angeles california", "east los angeles, ca", "east los angeles, california", "east los angeles, ca", "east los angeles, california", "hollywood hills", "la", "la, ca", "la, california", "la baby", "la ca", "la california", "la, ca", "la, california", "la, ca", "la, california", "ladera heights", "lax", "leimert park", "los angeleees, californiaaa", "los angeles", "los angeles, ca", "los angeles, california", "los angeles, california", "los angeles ca", "los angeles cali", "los angeles california", "los angeles, ca", "los angeles, calif", "los angeles, california", "los angeles, california usa", "los angeles, california, usa", "los angeles, united states", "los angeles, usa", "los angeles, ca", "los angeles, california", "los angelos, california", "los angles, california", "silverlake", "south central la", "south central los angeles", "staples center", "ucla", "usc", "watts, ca", "watts, california", "watts ca", "watts california", "watts, ca", "watts, california", "watts, ca", "watts, california", "west la", "west los angeles", "west los angeles, ca", "west los angeles, california", "west los angeles ca", "west los angeles california", "west los angeles, ca", "west los angeles, california", "west los angeles, ca", "west los angeles, california", "harbor city"]}
{"city": "Belgrade", "uzip": null, "countrycode": "RS", "country": "Serbia", "longitude": "20.462419", "countycode": "", "county": "Grad Beograd", "parent_id": "845270", "state": "Centralna Srbija", "radius": 10600, "statecode": "", "latitude": "44.812372", "postal": "", "id": "792680", "aliases": ["belgrade"]}
{"city": "Rayleigh", "uzip": "SS6 7", "countrycode": "GB", "country": "United Kingdom", "longitude": "0.604634", "countycode": "ESS", "county": "Essex", "parent_id": "-1", "state": "England", "radius": 10000, "statecode": "ENG", "latitude": "51.586488", "postal": "", "id": "2639583", "aliases": ["rayleigh, essex", "rayleigh, essex, united kingdom"]}
{"city": "Townsville", "uzip": "", "countrycode": "AU", "country": "Australia", "longitude": "146.821060", "countycode": "", "county": "Townsville City", "parent_id": "8349441", "state": "Queensland", "radius": 13800, "statecode": "QLD", "latitude": "-19.257231", "postal": "", "id": "2146142", "aliases": ["townsville, australia"]}
{"city": "Seguin", "uzip": "78155", "countrycode": "US", "country": "United States", "longitude": "-97.964649", "countycode": "", "county": "Guadalupe County", "parent_id": "6521321", "state": "Texas", "radius": 10000, "statecode": "TX", "latitude": "29.569270", "postal": "", "id": "4727756", "aliases": ["seguin, texas", "seguin, tx", "seguin texas", "seguin tx", "seguin, texas", "seguin, tx", "seguin, texas", "seguin, tx"]}
{"city": "Columbia", "uzip": "65201", "countrycode": "US", "country": "United States", "longitude": "-92.313667", "countycode": "", "county": "Boone County", "parent_id": "4399011", "state": "Missouri", "radius": 15700, "statecode": "MO", "latitude": "38.929153", "postal": "65201", "id": "4381982", "aliases": ["columbia, missouri", "columbia, mo", "columbia missouri", "columbia mo", "columbia, missouri", "columbia, mo", "columbia, missouri", "columbia, mo", "mizzou"]}
{"city": "Reading", "uzip": "RG1 4", "countrycode": "GB", "country": "United Kingdom", "longitude": "-0.963009", "countycode": "", "county": "Berkshire", "parent_id": "6510507", "state": "England", "radius": 26500, "statecode": "ENG", "latitude": "51.453520", "postal": "", "id": "2639577", "aliases": ["reading uk", "reading, berkshire", "reading, berkshire, uk reading", "reading, berkshire, united kingdom", "reading, england", "reading, uk", "reading, united kingdom"]}
{"city": "Braga", "uzip": "4700", "countrycode": "PT", "country": "Portugal", "longitude": "-8.429134", "countycode": "03", "county": "Braga", "parent_id": "6532131", "state": "", "radius": 1400, "statecode": "", "latitude": "41.551625", "postal": "", "id": "2742032", "aliases": ["braga"]}
{"city": "Boynton Beach", "uzip": "33435", "countrycode": "US", "country": "United States", "longitude": "-80.063159", "countycode": "", "county": "Palm Beach County", "parent_id": "6530507", "state": "Florida", "radius": 8400, "statecode": "FL", "latitude": "26.528910", "postal": "", "id": "4148677", "aliases": ["boynton beach", "boynton beach, fl", "boynton beach, florida", "boynton beach fl", "boynton beach florida", "boynton beach, fl", "boynton beach, florida", "boynton beach, fl", "boynton beach, florida"]}
{"city": "Layton", "uzip": "84041", "countrycode": "US", "country": "United States", "longitude": "-111.961023", "countycode": "", "county": "Davis County", "parent_id": "5784787", "state": "Utah", "radius": 9000, "statecode": "UT", "latitude": "41.065933", "postal": "", "id": "5777107", "aliases": ["layton, ut", "layton, utah", "layton ut", "layton utah", "layton, ut", "layton, utah", "layton, ut", "layton, utah"]}
{"city": "Yankton", "uzip": "57078", "countrycode": "US", "country": "United States", "longitude": "-97.397054", "countycode": "", "county": "Yankton County", "parent_id": "6530835", "state": "South Dakota", "radius": 5100, "statecode": "SD", "latitude": "42.871790", "postal": "", "id": "5233053", "aliases": ["yankton, sd", "yankton, south dakota", "yankton sd", "yankton south dakota", "yankton, sd", "yankton, south dakota", "yankton, sd", "yankton, south dakota"]}
{"city": "Riverview", "uzip": "33578", "countrycode": "US", "country": "United States", "longitude": "-82.329219", "countycode": "", "county": "Hillsborough County", "parent_id": "-1", "state": "Florida", "radius": 3800, "statecode": "FL", "latitude": "27.871710", "postal": "", "id": "4170156", "aliases": ["riverview, fl", "riverview, florida", "riverview fl", "riverview florida", "riverview, fl", "riverview, florida", "riverview, fl", "riverview, florida"]}
{"city": "Latrobe", "uzip": "15650", "countrycode": "US", "country": "United States", "longitude": "-79.384944", "countycode": "", "county": "Westmoreland County", "parent_id": "5218762", "state": "Pennsylvania", "radius": 2800, "statecode": "PA", "latitude": "40.316645", "postal": "", "id": "5197227", "aliases": ["latrobe, pa", "latrobe, pennsylvania", "latrobe pa", "latrobe pennsylvania", "latrobe, pa", "latrobe, pennsylvania", "latrobe, pa", "latrobe, pennsylvania"]}
{"city": "Apopka", "uzip": "32703", "countrycode": "US", "country": "United States", "longitude": "-81.507604", "countycode": "", "county": "Orange County", "parent_id": "6477276", "state": "Florida", "radius": 8200, "statecode": "FL", "latitude": "28.673120", "postal": "", "id": "4146166", "aliases": ["apopka, fl", "apopka, florida", "apopka fl", "apopka florida", "apopka, fl", "apopka, florida", "apopka, fl", "apopka, florida"]}
{"city": "Euclid", "uzip": "44123", "countrycode": "US", "country": "United States", "longitude": "-81.526819", "countycode": "", "county": "Cuyahoga County", "parent_id": "6498543", "state": "Ohio", "radius": 6600, "statecode": "OH", "latitude": "41.599200", "postal": "", "id": "5153420", "aliases": ["euclid, oh", "euclid, ohio", "euclid oh", "euclid ohio", "euclid, oh", "euclid, ohio", "euclid, oh", "euclid, ohio"]}
{"city": "Long Beach", "uzip": "90802", "countrycode": "US", "country": "United States", "longitude": "-118.192399", "countycode": "", "county": "Los Angeles County", "parent_id": "5341493", "state": "California", "radius": 11900, "statecode": "CA", "latitude": "33.766725", "postal": "", "id": "5367929", "aliases": ["lb", "long beach", "long beach, ca", "long beach, california", "long beach ca", "long beach california", "long beach, ca", "long beach, california", "long beach, ca", "long beach, california"]}
{"city": "Orchard Park", "uzip": "14127", "countrycode": "US", "country": "United States", "longitude": "-78.743869", "countycode": "", "county": "Erie County", "parent_id": "-1", "state": "New York", "radius": 2100, "statecode": "NY", "latitude": "42.766190", "postal": "", "id": "5129951", "aliases": ["orchard park, new york", "orchard park, ny", "orchard park new york", "orchard park ny", "orchard park, new york", "orchard park, ny", "orchard park, new york", "orchard park, ny"]}
{"city": "Bozeman", "uzip": "59715", "countrycode": "US", "country": "United States", "longitude": "-111.033179", "countycode": "", "county": "Gallatin County", "parent_id": "6530687", "state": "Montana", "radius": 25700, "statecode": "MT", "latitude": "45.679325", "postal": "", "id": "5641727", "aliases": ["bozeman, montana", "bozeman, mt", "bozeman montana", "bozeman mt", "bozeman, montana", "bozeman, mt", "bozeman, montana", "bozeman, mt"]}
{"city": "Tomball", "uzip": "77375", "countrycode": "US", "country": "United States", "longitude": "-95.617089", "countycode": "", "county": "Harris County", "parent_id": "6500843", "state": "Texas", "radius": 4600, "statecode": "TX", "latitude": "30.095805", "postal": "", "id": "4737094", "aliases": ["tomball, texas", "tomball, tx", "tomball texas", "tomball tx", "tomball, texas", "tomball, tx", "tomball, texas", "tomball, tx"]}
{"city": "Redditch", "uzip": "B97 4", "countrycode": "GB", "country": "United Kingdom", "longitude": "-1.941267", "countycode": "WOR", "county": "Worcestershire", "parent_id": "6530152", "state": "England", "radius": 7300, "statecode": "ENG", "latitude": "52.307271", "postal": "", "id": "2639557", "aliases": ["redditch", "redditch, england", "redditch, worcestershire"]}
{"city": "Watertown", "uzip": "13601", "countrycode": "US", "country": "United States", "longitude": "-75.913164", "countycode": "", "county": "Jefferson County", "parent_id": "6531673", "state": "New York", "radius": 8200, "statecode": "NY", "latitude": "43.975589", "postal": "", "id": "5143396", "aliases": ["watertown, new york", "watertown, ny", "watertown new york", "watertown ny", "watertown, new york", "watertown, ny", "watertown, new york", "watertown, ny"]}
{"city": "Watertown", "uzip": "02472", "countrycode": "US", "country": "United States", "longitude": "-71.187879", "countycode": "", "county": "Middlesex County", "parent_id": "6533068", "state": "Massachusetts", "radius": 5100, "statecode": "MA", "latitude": "42.367615", "postal": "", "id": "4954611", "aliases": ["watertown, ma", "watertown, massachusetts", "watertown ma", "watertown massachusetts", "watertown, ma", "watertown, massachusetts", "watertown, ma", "watertown, massachusetts"]}
{"city": "Sydney", "uzip": "2020", "countrycode": "AU", "country": "Australia", "longitude": "151.164673", "countycode": "", "county": "City of Rockdale", "parent_id": "2163256", "state": "New South Wales", "radius": 3300, "statecode": "NSW", "latitude": "-33.932362", "postal": "2020", "id": "2147714", "aliases": ["sydney international airport"]}
{"city": "Petal", "uzip": "39465", "countrycode": "US", "country": "United States", "longitude": "-89.265054", "countycode": "", "county": "Forrest County", "parent_id": "-1", "state": "Mississippi", "radius": 4300, "statecode": "MS", "latitude": "31.346680", "postal": "", "id": "4440837", "aliases": ["petal, mississippi", "petal, ms", "petal mississippi", "petal ms", "petal, mississippi", "petal, ms", "petal, mississippi", "petal, ms"]}
{"city": "Plasencia", "uzip": "10600", "countrycode": "ES", "country": "Spain", "longitude": "-6.089852", "countycode": "CC", "county": "C\u00e1ceres", "parent_id": "-1", "state": "Extremadura", "radius": 4300, "statecode": "EX", "latitude": "40.029945", "postal": "", "id": "3113331", "aliases": ["plasencia"]}
{"city": "Dillon", "uzip": "29536", "countrycode": "US", "country": "United States", "longitude": "-79.370804", "countycode": "", "county": "Dillon County", "parent_id": "6533201", "state": "South Carolina", "radius": 4800, "statecode": "SC", "latitude": "34.417090", "postal": "", "id": "4576653", "aliases": ["dillon, sc", "dillon, south carolina", "dillon sc", "dillon south carolina", "dillon, sc", "dillon, south carolina", "dillon, sc", "dillon, south carolina"]}
{"city": "Wallasey", "uzip": "CH44 2", "countrycode": "GB", "country": "United Kingdom", "longitude": "-3.049949", "countycode": "MSY", "county": "Merseyside", "parent_id": "-1", "state": "England", "radius": 5900, "statecode": "ENG", "latitude": "53.419590", "postal": "", "id": "2634873", "aliases": ["wallasey, merseyside"]}
{"city": "Redhill", "uzip": "RH1 1", "countrycode": "GB", "country": "United Kingdom", "longitude": "-0.168879", "countycode": "SRY", "county": "Surrey", "parent_id": "6510019", "state": "England", "radius": 6500, "statecode": "ENG", "latitude": "51.238180", "postal": "", "id": "2639545", "aliases": ["redhill", "redhill, surrey"]}
{"city": "Eugene", "uzip": "97401", "countrycode": "US", "country": "United States", "longitude": "-123.088544", "countycode": "", "county": "Lane County", "parent_id": "6530492", "state": "Oregon", "radius": 11400, "statecode": "OR", "latitude": "44.049920", "postal": "", "id": "5725846", "aliases": ["eugene, or", "eugene, oregon", "eugene or", "eugene oregon", "eugene, or", "eugene, oregon", "eugene, or", "eugene, oregon", "eugene"]}
{"city": "Wilberforce", "uzip": "45384", "countrycode": "US", "country": "United States", "longitude": "-83.886890", "countycode": "", "county": "Greene County", "parent_id": "-1", "state": "Ohio", "radius": 2700, "statecode": "OH", "latitude": "39.711794", "postal": "", "id": "4528348", "aliases": ["wilberforce, oh", "wilberforce, ohio", "wilberforce oh", "wilberforce ohio", "wilberforce, oh", "wilberforce, ohio", "wilberforce, oh", "wilberforce, ohio"]}
{"city": "Stamford", "uzip": "06901", "countrycode": "US", "country": "United States", "longitude": "-73.542234", "countycode": "", "county": "Fairfield County", "parent_id": "6531936", "state": "Connecticut", "radius": 16100, "statecode": "CT", "latitude": "41.051820", "postal": "", "id": "4843564", "aliases": ["stamford", "stamford, connecticut", "stamford, ct", "stamford connecticut", "stamford ct", "stamford, connecticut", "stamford, ct", "stamford, connecticut", "stamford, ct"]}
{"city": "Camilla", "uzip": "31730", "countrycode": "US", "country": "United States", "longitude": "-84.204649", "countycode": "", "county": "Mitchell County", "parent_id": "6481201", "state": "Georgia", "radius": 5700, "statecode": "GA", "latitude": "31.231135", "postal": "", "id": "4185863", "aliases": ["camilla"]}
{"city": "Long Branch", "uzip": "07740", "countrycode": "US", "country": "United States", "longitude": "-73.993369", "countycode": "", "county": "Monmouth County", "parent_id": "6480921", "state": "New Jersey", "radius": 5100, "statecode": "NJ", "latitude": "40.303760", "postal": "", "id": "5100619", "aliases": ["long branch, new jersey", "long branch, nj", "long branch new jersey", "long branch nj", "long branch, new jersey", "long branch, nj", "long branch, new jersey", "long branch, nj"]}
{"city": "Walnut Creek", "uzip": "94597", "countrycode": "US", "country": "United States", "longitude": "-122.081490", "countycode": "", "county": "Contra Costa County", "parent_id": "6505491", "state": "California", "radius": 1100, "statecode": "CA", "latitude": "37.920319", "postal": "94597", "id": "5406990", "aliases": ["palos verdes, california", "walnut creek", "walnut creek, ca", "walnut creek, california", "walnut creek ca", "walnut creek california", "walnut creek, ca", "walnut creek, california", "walnut creek, ca", "walnut creek, california"]}
{"city": "", "uzip": "", "countrycode": "BR", "country": "Brazil", "longitude": "-37.734039", "countycode": "", "county": "", "parent_id": "6321093", "state": "Bahia", "radius": 990300, "statecode": "BA", "latitude": "-14.526705", "postal": "", "id": "3471168", "aliases": ["bahia"]}
{"city": "Merrillville", "uzip": "46410", "countrycode": "US", "country": "United States", "longitude": "-87.338353", "countycode": "", "county": "Lake County", "parent_id": "6533132", "state": "Indiana", "radius": 10300, "statecode": "IN", "latitude": "41.485607", "postal": "", "id": "4923482", "aliases": ["merrillville", "merrillville, in", "merrillville, indiana", "merrillville in", "merrillville indiana", "merrillville, in", "merrillville, indiana", "merrillville, in", "merrillville, indiana"]}
{"city": "Euless", "uzip": "76039", "countrycode": "US", "country": "United States", "longitude": "-97.091169", "countycode": "", "county": "Tarrant County", "parent_id": "6507759", "state": "Texas", "radius": 6900, "statecode": "TX", "latitude": "32.839179", "postal": "", "id": "4689550", "aliases": ["euless, texas", "euless, tx", "euless texas", "euless tx", "euless, texas", "euless, tx", "euless, texas", "euless, tx"]}
{"city": "Altamonte Springs", "uzip": "32701", "countrycode": "US", "country": "United States", "longitude": "-81.359764", "countycode": "", "county": "Seminole County", "parent_id": "6514422", "state": "Florida", "radius": 6200, "statecode": "FL", "latitude": "28.665910", "postal": "", "id": "4145941", "aliases": ["altamonte springs, fl", "altamonte springs, florida", "altamonte springs fl", "altamonte springs florida", "altamonte springs, fl", "altamonte springs, florida", "altamonte springs, fl", "altamonte springs, florida"]}
{"city": "Rockwood", "uzip": "37854", "countrycode": "US", "country": "United States", "longitude": "-84.685053", "countycode": "", "county": "Roane County", "parent_id": "-1", "state": "Tennessee", "radius": 6200, "statecode": "TN", "latitude": "35.866999", "postal": "", "id": "4653999", "aliases": ["rockwood, tennessee", "rockwood, tn", "rockwood tennessee", "rockwood tn", "rockwood, tennessee", "rockwood, tn", "rockwood, tennessee", "rockwood, tn"]}
{"city": "Boaz", "uzip": "35957", "countrycode": "US", "country": "United States", "longitude": "-86.165596", "countycode": "", "county": "Marshall County", "parent_id": "6516265", "state": "Alabama", "radius": 5200, "statecode": "AL", "latitude": "34.197630", "postal": "", "id": "4051059", "aliases": ["boaz, al", "boaz, alabama", "boaz al", "boaz alabama", "boaz, al", "boaz, alabama", "boaz, al", "boaz, alabama"]}
{"city": "Barrow", "uzip": "99723", "countrycode": "US", "country": "United States", "longitude": "-156.792371", "countycode": "", "county": "North Slope Borough", "parent_id": "6464344", "state": "Alaska", "radius": 22300, "statecode": "AK", "latitude": "71.288825", "postal": "", "id": "5880054", "aliases": ["barrow"]}
{"city": "Enschede", "uzip": "7514", "countrycode": "NL", "country": "The Netherlands", "longitude": "6.895374", "countycode": "OV", "county": "Overijssel", "parent_id": "2758198", "state": "", "radius": 7300, "statecode": "", "latitude": "52.223575", "postal": "", "id": "2756071", "aliases": ["enschede"]}
{"city": "Bellport", "uzip": "11713", "countrycode": "US", "country": "United States", "longitude": "-72.937759", "countycode": "", "county": "Suffolk County", "parent_id": "-1", "state": "New York", "radius": 1900, "statecode": "NY", "latitude": "40.755935", "postal": "", "id": "5108714", "aliases": ["bellport"]}
{"city": "Garden City", "uzip": "67846", "countrycode": "US", "country": "United States", "longitude": "-100.873184", "countycode": "", "county": "Finney County", "parent_id": "6531913", "state": "Kansas", "radius": 4500, "statecode": "KS", "latitude": "37.969180", "postal": "", "id": "5445439", "aliases": ["garden city, kansas", "garden city, ks", "garden city kansas", "garden city ks", "garden city, kansas", "garden city, ks", "garden city, kansas", "garden city, ks"]}
{"city": "Garden City", "uzip": "48135", "countrycode": "US", "country": "United States", "longitude": "-83.331099", "countycode": "", "county": "Wayne County", "parent_id": "-1", "state": "Michigan", "radius": 4100, "statecode": "MI", "latitude": "42.329545", "postal": "", "id": "4993659", "aliases": ["garden city, mi", "garden city, michigan", "garden city mi", "garden city michigan", "garden city, mi", "garden city, michigan", "garden city, mi", "garden city, michigan"]}
{"city": "Toms River", "uzip": "08753", "countrycode": "US", "country": "United States", "longitude": "-74.193789", "countycode": "", "county": "Ocean County", "parent_id": "6515762", "state": "New Jersey", "radius": 11900, "statecode": "NJ", "latitude": "39.952885", "postal": "", "id": "4504476", "aliases": ["toms river", "toms river, new jersey", "toms river, nj", "toms river new jersey", "toms river nj", "toms river, new jersey", "toms river, nj", "toms river, new jersey", "toms river, nj"]}
{"city": "Casper", "uzip": "82601", "countrycode": "US", "country": "United States", "longitude": "-106.327734", "countycode": "", "county": "Natrona County", "parent_id": "6527687", "state": "Wyoming", "radius": 12600, "statecode": "WY", "latitude": "42.850095", "postal": "", "id": "5820705", "aliases": ["casper, wy", "casper, wyoming", "casper wy", "casper wyoming", "casper, wy", "casper, wyoming", "casper, wy", "casper, wyoming"]}
{"city": "Tonawanda", "uzip": "14150", "countrycode": "US", "country": "United States", "longitude": "-78.886371", "countycode": "", "county": "Erie County", "parent_id": "6527494", "state": "New York", "radius": 6900, "statecode": "NY", "latitude": "43.018839", "postal": "", "id": "5141175", "aliases": ["tonawanda, new york", "tonawanda, ny", "tonawanda new york", "tonawanda ny", "tonawanda, new york", "tonawanda, ny", "tonawanda, new york", "tonawanda, ny"]}
{"city": "Port Huron", "uzip": "48060", "countrycode": "US", "country": "United States", "longitude": "-82.428449", "countycode": "", "county": "St Clair County", "parent_id": "6512842", "state": "Michigan", "radius": 8000, "statecode": "MI", "latitude": "42.975830", "postal": "", "id": "5006233", "aliases": ["port huron", "port huron, mi", "port huron, michigan", "port huron mi", "port huron michigan", "port huron, mi", "port huron, michigan", "port huron, mi", "port huron, michigan"]}
{"city": "", "uzip": "", "countrycode": "GB", "country": "United Kingdom", "longitude": "-0.296000", "countycode": "LIN", "county": "Lincolnshire", "parent_id": "2641324", "state": "England", "radius": 101000, "statecode": "ENG", "latitude": "53.183344", "postal": "", "id": "2644486", "aliases": ["lincolnshire, england", "lincs"]}
{"city": "Kingston", "uzip": "02881", "countrycode": "US", "country": "United States", "longitude": "-71.525497", "countycode": "WA", "county": "Washington County", "parent_id": "-1", "state": "Rhode Island", "radius": 100, "statecode": "RI", "latitude": "41.484650", "postal": "02881", "id": "5223006", "aliases": ["kingston, rhode island", "kingston, ri", "kingston rhode island", "kingston ri", "kingston, rhode island", "kingston, ri", "kingston, rhode island", "kingston, ri", "university of rhode island"]}
{"city": "Stoughton", "uzip": "02072", "countrycode": "US", "country": "United States", "longitude": "-71.102135", "countycode": "", "county": "Norfolk County", "parent_id": "6480526", "state": "Massachusetts", "radius": 6900, "statecode": "MA", "latitude": "42.125980", "postal": "", "id": "4952206", "aliases": ["stoughton", "stoughton, ma", "stoughton, massachusetts", "stoughton ma", "stoughton massachusetts", "stoughton, ma", "stoughton, massachusetts", "stoughton, ma", "stoughton, massachusetts"]}
{"city": "Richlands", "uzip": "28574", "countrycode": "US", "country": "United States", "longitude": "-77.547085", "countycode": "", "county": "Onslow County", "parent_id": "-1", "state": "North Carolina", "radius": 1300, "statecode": "NC", "latitude": "34.898083", "postal": "", "id": "4487941", "aliases": ["richlands, nc", "richlands, north carolina", "richlands nc", "richlands north carolina", "richlands, nc", "richlands, north carolina", "richlands, nc", "richlands, north carolina"]}
{"city": "Dixon", "uzip": "95620", "countrycode": "US", "country": "United States", "longitude": "-121.816104", "countycode": "", "county": "Solano County", "parent_id": "6504213", "state": "California", "radius": 7800, "statecode": "CA", "latitude": "38.445515", "postal": "", "id": "5343303", "aliases": ["dixon, ca", "dixon, california", "dixon ca", "dixon california", "dixon, ca", "dixon, california", "dixon, ca", "dixon, california"]}
{"city": "Hubbard", "uzip": "44425", "countrycode": "US", "country": "United States", "longitude": "-80.573369", "countycode": "", "county": "Trumbull County", "parent_id": "6532953", "state": "Ohio", "radius": 3600, "statecode": "OH", "latitude": "41.156400", "postal": "", "id": "5158143", "aliases": ["hubbard, oh", "hubbard, ohio", "hubbard oh", "hubbard ohio", "hubbard, oh", "hubbard, ohio", "hubbard, oh", "hubbard, ohio"]}
{"city": "Reigate", "uzip": "RH2 7", "countrycode": "GB", "country": "United Kingdom", "longitude": "-0.204919", "countycode": "SRY", "county": "Surrey", "parent_id": "6497288", "state": "England", "radius": 8800, "statecode": "ENG", "latitude": "51.235950", "postal": "", "id": "2639506", "aliases": ["reigate", "reigate, surrey"]}
{"city": "Oregon", "uzip": "43616", "countrycode": "US", "country": "United States", "longitude": "-83.422789", "countycode": "", "county": "Lucas County", "parent_id": "6481252", "state": "Ohio", "radius": 7600, "statecode": "OH", "latitude": "41.652455", "postal": "", "id": "5165734", "aliases": ["oregon, oh", "oregon, ohio", "oregon oh", "oregon ohio", "oregon, oh", "oregon, ohio", "oregon, oh", "oregon, ohio"]}
{"city": "Garden Grove", "uzip": "92840", "countrycode": "US", "country": "United States", "longitude": "-117.936159", "countycode": "", "county": "Orange County", "parent_id": "5409774", "state": "California", "radius": 10200, "statecode": "CA", "latitude": "33.776070", "postal": "", "id": "5351515", "aliases": ["garden grove", "garden grove, ca", "garden grove, california", "garden grove ca", "garden grove california", "garden grove, ca", "garden grove, california", "garden grove, ca", "garden grove, california"]}
{"city": "Bradenton", "uzip": "34205", "countrycode": "US", "country": "United States", "longitude": "-82.578074", "countycode": "", "county": "Manatee County", "parent_id": "6532019", "state": "Florida", "radius": 17600, "statecode": "FL", "latitude": "27.495500", "postal": "", "id": "4148708", "aliases": ["bradenton", "bradenton, fl", "bradenton, florida", "bradenton fl", "bradenton florida", "bradenton, fl", "bradenton, florida", "bradenton, fl", "bradenton, florida"]}
{"city": "Barstow", "uzip": "92311", "countrycode": "US", "country": "United States", "longitude": "-117.025827", "countycode": "", "county": "San Bernardino County", "parent_id": "6531344", "state": "California", "radius": 13600, "statecode": "CA", "latitude": "34.892965", "postal": "", "id": "5326297", "aliases": ["barstow", "barstow, ca", "barstow, california", "barstow ca", "barstow california", "barstow, ca", "barstow, california", "barstow, ca", "barstow, california"]}
{"city": "Saratoga Springs", "uzip": "12866", "countrycode": "US", "country": "United States", "longitude": "-73.784579", "countycode": "", "county": "Saratoga County", "parent_id": "6528914", "state": "New York", "radius": 8800, "statecode": "NY", "latitude": "43.083700", "postal": "", "id": "5136334", "aliases": ["saratoga springs", "saratoga springs, new york", "saratoga springs, ny", "saratoga springs new york", "saratoga springs ny", "saratoga springs, new york", "saratoga springs, ny", "saratoga springs, new york", "saratoga springs, ny"]}
{"city": "Surrey", "uzip": "V3X", "countrycode": "CA", "country": "Canada", "longitude": "-122.831374", "countycode": "", "county": "Greater Vancouver", "parent_id": "6533102", "state": "British Columbia", "radius": 19100, "statecode": "BC", "latitude": "49.105220", "postal": "", "id": "6159905", "aliases": ["surrey bc", "surrey bc canada", "surrey, bc", "surrey, bc, canada", "surrey, british columbia"]}
{"city": "Allen Park", "uzip": "48101", "countrycode": "US", "country": "United States", "longitude": "-83.220054", "countycode": "", "county": "Wayne County", "parent_id": "6465942", "state": "Michigan", "radius": 5900, "statecode": "MI", "latitude": "42.263920", "postal": "", "id": "4984016", "aliases": ["allen park", "allen park, mi", "allen park, michigan", "allen park mi", "allen park michigan", "allen park, mi", "allen park, michigan", "allen park, mi", "allen park, michigan"]}
{"city": "Oregon City", "uzip": "97045", "countrycode": "US", "country": "United States", "longitude": "-122.592784", "countycode": "", "county": "Clackamas County", "parent_id": "6529838", "state": "Oregon", "radius": 5700, "statecode": "OR", "latitude": "45.336518", "postal": "", "id": "5744253", "aliases": ["oregon city", "oregon city, or", "oregon city, oregon", "oregon city or", "oregon city oregon", "oregon city, or", "oregon city, oregon", "oregon city, or", "oregon city, oregon"]}
{"city": "Selma", "uzip": "93662", "countrycode": "US", "country": "United States", "longitude": "-119.610783", "countycode": "", "county": "Fresno County", "parent_id": "6510834", "state": "California", "radius": 3800, "statecode": "CA", "latitude": "36.567544", "postal": "", "id": "5394329", "aliases": ["selma, ca", "selma, california", "selma ca", "selma california", "selma, ca", "selma, california", "selma, ca", "selma, california"]}
{"city": "Metz", "uzip": "57000", "countrycode": "FR", "country": "France", "longitude": "6.173203", "countycode": "57", "county": "Moselle", "parent_id": "6527248", "state": "Lorraine", "radius": 7800, "statecode": "", "latitude": "49.115661", "postal": "", "id": "2994160", "aliases": ["metz", "mtsu"]}
{"city": "Selma", "uzip": "36701", "countrycode": "US", "country": "United States", "longitude": "-87.022234", "countycode": "", "county": "Dallas County", "parent_id": "4092478", "state": "Alabama", "radius": 6700, "statecode": "AL", "latitude": "32.411790", "postal": "", "id": "4089114", "aliases": ["selma", "selma, al", "selma, alabama", "selma al", "selma alabama", "selma, al", "selma, alabama", "selma, al", "selma, alabama"]}
{"city": "Woodland", "uzip": "95695", "countrycode": "US", "country": "United States", "longitude": "-121.773124", "countycode": "", "county": "Yolo County", "parent_id": "6530991", "state": "California", "radius": 6700, "statecode": "CA", "latitude": "38.678435", "postal": "", "id": "5410430", "aliases": ["woodland, ca", "woodland, california", "woodland ca", "woodland california", "woodland, ca", "woodland, california", "woodland, ca", "woodland, california"]}
{"city": "Ware", "uzip": "01082", "countrycode": "US", "country": "United States", "longitude": "-72.251361", "countycode": "", "county": "Hampshire County", "parent_id": "-1", "state": "Massachusetts", "radius": 10000, "statecode": "MA", "latitude": "42.255912", "postal": "", "id": "4954477", "aliases": ["ware"]}
{"city": "Perth", "uzip": "", "countrycode": "AU", "country": "Australia", "longitude": "115.857239", "countycode": "", "county": "", "parent_id": "8581509", "state": "Western Australia", "radius": 35800, "statecode": "WA", "latitude": "-31.953020", "postal": "", "id": "2063523", "aliases": ["fremantle, western australia", "perth", "perth australia", "perth wa", "perth western australia", "perth, australia", "perth, wa", "perth, wa, australia", "perth, western australia"]}
{"city": "Eureka", "uzip": "95501", "countrycode": "US", "country": "United States", "longitude": "-124.159554", "countycode": "", "county": "Humboldt County", "parent_id": "6515981", "state": "California", "radius": 9100, "statecode": "CA", "latitude": "40.803255", "postal": "", "id": "5563397", "aliases": ["eureka, ca", "eureka, california", "eureka ca", "eureka california", "eureka, ca", "eureka, california", "eureka, ca", "eureka, california"]}
{"city": "Orem", "uzip": "84057", "countrycode": "US", "country": "United States", "longitude": "-111.695419", "countycode": "UT", "county": "Utah County", "parent_id": "6530284", "state": "Utah", "radius": 7000, "statecode": "UT", "latitude": "40.298060", "postal": "", "id": "5779334", "aliases": ["orem, ut", "orem, utah", "orem ut", "orem utah", "orem, ut", "orem, utah", "orem, ut", "orem, utah"]}
{"city": "", "uzip": "", "countrycode": "ID", "country": "Indonesia", "longitude": "100.637074", "countycode": "", "county": "", "parent_id": "-1", "state": "", "radius": 646900, "statecode": "", "latitude": "-0.144290", "postal": "", "id": "1643084", "aliases": ["indonesia", "indonesian", "north sumatera", "republic of indonesia", "republik indonesia", "south sulawesi"]}
{"city": "Yarm", "uzip": "TS15 9", "countrycode": "GB", "country": "United Kingdom", "longitude": "-1.354144", "countycode": "", "county": "Cleveland", "parent_id": "-1", "state": "England", "radius": 10200, "statecode": "ENG", "latitude": "54.508635", "postal": "", "id": "2633415", "aliases": ["yarm"]}
{"city": "Hanford", "uzip": "93230", "countrycode": "US", "country": "United States", "longitude": "-119.645804", "countycode": "", "county": "Kings County", "parent_id": "6530631", "state": "California", "radius": 7700, "statecode": "CA", "latitude": "36.327175", "postal": "", "id": "5355180", "aliases": ["hanford", "hanford, ca", "hanford, california", "hanford ca", "hanford california", "hanford, ca", "hanford, california", "hanford, ca", "hanford, california"]}
{"city": "Roanoke", "uzip": "24011", "countrycode": "US", "country": "United States", "longitude": "-79.940534", "countycode": "", "county": "Roanoke City", "parent_id": "6531747", "state": "Virginia", "radius": 10400, "statecode": "VA", "latitude": "37.271525", "postal": "", "id": "4782167", "aliases": ["roanoke, va", "roanoke, virginia", "roanoke va", "roanoke virginia", "roanoke, va", "roanoke, virginia", "roanoke, va", "roanoke, virginia", "roanoke"]}
{"city": "New Albany", "uzip": "47150", "countrycode": "US", "country": "United States", "longitude": "-85.824630", "countycode": "", "county": "Floyd County", "parent_id": "6510244", "state": "Indiana", "radius": 8000, "statecode": "IN", "latitude": "38.285518", "postal": "", "id": "4262045", "aliases": ["new albany", "new albany, in", "new albany, indiana", "new albany in", "new albany indiana", "new albany, in", "new albany, indiana", "new albany, in", "new albany, indiana"]}
{"city": "Alabaster", "uzip": "35007", "countrycode": "US", "country": "United States", "longitude": "-86.816224", "countycode": "", "county": "Shelby County", "parent_id": "4070985", "state": "Alabama", "radius": 8200, "statecode": "AL", "latitude": "33.245086", "postal": "", "id": "4829762", "aliases": ["alabaster, al", "alabaster, alabama", "alabaster al", "alabaster alabama", "alabaster, al", "alabaster, alabama", "alabaster, al", "alabaster, alabama"]}
{"city": "Bartlett", "uzip": "38134", "countrycode": "US", "country": "United States", "longitude": "-89.849699", "countycode": "", "county": "Shelby County", "parent_id": "6512984", "state": "Tennessee", "radius": 7400, "statecode": "TN", "latitude": "35.204779", "postal": "", "id": "4604183", "aliases": ["bartlett, tennessee", "bartlett, tn", "bartlett tennessee", "bartlett tn", "bartlett, tennessee", "bartlett, tn", "bartlett, tennessee", "bartlett, tn"]}
{"city": "Stanford", "uzip": "94305", "countrycode": "US", "country": "United States", "longitude": "-122.168924", "countycode": "", "county": "Santa Clara County", "parent_id": "5338647", "state": "California", "radius": 3100, "statecode": "CA", "latitude": "37.431370", "postal": "", "id": "5398563", "aliases": ["stanford", "stanford, ca", "stanford, california", "stanford ca", "stanford california", "stanford, ca", "stanford, california", "stanford, ca", "stanford, california"]}
{"city": "Gardena", "uzip": "90247", "countrycode": "US", "country": "United States", "longitude": "-118.307504", "countycode": "", "county": "Los Angeles County", "parent_id": "5399349", "state": "California", "radius": 8300, "statecode": "CA", "latitude": "33.883790", "postal": "", "id": "5351549", "aliases": ["gardena", "gardena, ca", "gardena, california", "gardena ca", "gardena california", "gardena, ca", "gardena, california", "gardena, ca", "gardena, california"]}
{"city": "Abbeville", "uzip": "29620", "countrycode": "US", "country": "United States", "longitude": "-82.380254", "countycode": "", "county": "Abbeville County", "parent_id": "-1", "state": "South Carolina", "radius": 3300, "statecode": "SC", "latitude": "34.178955", "postal": "", "id": "4568985", "aliases": ["abbeville, sc", "abbeville, south carolina", "abbeville sc", "abbeville south carolina", "abbeville, sc", "abbeville, south carolina", "abbeville, sc", "abbeville, south carolina"]}
{"city": "Hamilton", "uzip": "35570", "countrycode": "US", "country": "United States", "longitude": "-87.988967", "countycode": "", "county": "Marion County", "parent_id": "6505397", "state": "Alabama", "radius": 11400, "statecode": "AL", "latitude": "34.142424", "postal": "", "id": "4065965", "aliases": ["hamilton"]}
{"city": "", "uzip": "", "countrycode": "KY", "country": "Cayman Islands", "longitude": "-81.252167", "countycode": "", "county": "", "parent_id": "-1", "state": "", "radius": 18800, "statecode": "", "latitude": "19.330014", "postal": "", "id": "3580718", "aliases": ["cayman islands", "grand cayman"]}
{"city": "Abbeville", "uzip": "36310", "countrycode": "US", "country": "United States", "longitude": "-85.250929", "countycode": "", "county": "Henry County", "parent_id": "6530848", "state": "Alabama", "radius": 4800, "statecode": "AL", "latitude": "31.571643", "postal": "", "id": "4829449", "aliases": ["abbeville"]}
{"city": "Paramaribo", "uzip": "", "countrycode": "SR", "country": "Suriname", "longitude": "-55.173851", "countycode": "", "county": "", "parent_id": "8222076", "state": "Paramaribo", "radius": 3700, "statecode": "", "latitude": "5.824030", "postal": "", "id": "3383330", "aliases": ["paramaribo"]}
{"city": "Houston", "uzip": "77004", "countrycode": "US", "country": "United States", "longitude": "-95.341850", "countycode": "", "county": "Harris County", "parent_id": "6533015", "state": "Texas", "radius": 100, "statecode": "TX", "latitude": "29.721430", "postal": "77004", "id": "4699066", "aliases": ["alief, texas", "alief, tx", "alief texas", "alief tx", "alief, texas", "alief, tx", "alief, texas", "alief, tx", "university of houston", "clutch city", "eveywhere in houston", "houstin, tx", "houston", "houston, texas", "houston, tx", "houston, texas", "houston, tx", "houston texas", "houston tx", "houston, tejas", "houston, texas", "houston, texas usa", "houston, texas, usa", "houston, tx", "houston, tx, united states", "houston, tx, us", "houston, tx, usa", "houston, united states", "houston, texas", "houston, tx", "houstonn", "houstonnn", "houstontx", "screwston, tx", "texas, houston"]}
{"city": "Pekanbaru", "uzip": "", "countrycode": "ID", "country": "Indonesia", "longitude": "101.449997", "countycode": "", "county": "Kota Pekan Baru", "parent_id": "-1", "state": "Riau", "radius": 6800, "statecode": "", "latitude": "0.533300", "postal": "", "id": "1631761", "aliases": ["pekanbaru", "pekanbaru indonesia", "pekanbaru riau", "pekanbaru, indonesia", "pekanbaru, riau", "pekanbaru, riau, indonesia", "pekanbaru, indonesia", "pekanbaru, riau", "pekanbaru, riau, indonesia", "pekanbaruindonesia"]}
{"city": "Abbotsford", "uzip": "54405", "countrycode": "US", "country": "United States", "longitude": "-90.319129", "countycode": "", "county": "Clark County", "parent_id": "6511550", "state": "Wisconsin", "radius": 2100, "statecode": "WI", "latitude": "44.945760", "postal": "", "id": "5243517", "aliases": ["abbotsford"]}
{"city": "Mesa", "uzip": "85201", "countrycode": "US", "country": "United States", "longitude": "-111.831459", "countycode": "", "county": "Maricopa County", "parent_id": "6525725", "state": "Arizona", "radius": 21600, "statecode": "AZ", "latitude": "33.417045", "postal": "", "id": "5304391", "aliases": ["mesa", "mesa, arizona", "mesa, az", "mesa arizona", "mesa az", "mesa patios, arizona", "mesa, arizona", "mesa, az", "mesa, arizona", "mesa, az"]}
{"city": "Wheeling", "uzip": "60090", "countrycode": "US", "country": "United States", "longitude": "-87.916194", "countycode": "", "county": "Cook County", "parent_id": "6493697", "state": "Illinois", "radius": 5000, "statecode": "IL", "latitude": "42.139540", "postal": "", "id": "4916311", "aliases": ["wheeling"]}
{"city": "Wagga Wagga", "uzip": "", "countrycode": "AU", "country": "Australia", "longitude": "147.357193", "countycode": "", "county": "Wagga Wagga", "parent_id": "8349330", "state": "New South Wales", "radius": 10100, "statecode": "NSW", "latitude": "-35.117241", "postal": "", "id": "2145110", "aliases": ["wagga wagga"]}
{"city": "", "uzip": "", "countrycode": "ID", "country": "Indonesia", "longitude": "96.646000", "countycode": "", "county": "", "parent_id": "8224053", "state": "Aceh", "radius": 217800, "statecode": "", "latitude": "3.955960", "postal": "", "id": "1215638", "aliases": ["aceh", "aceh, indonesia"]}
{"city": "Topeka", "uzip": "66603", "countrycode": "US", "country": "United States", "longitude": "-95.671184", "countycode": "", "county": "Shawnee County", "parent_id": "6533034", "state": "Kansas", "radius": 12100, "statecode": "KS", "latitude": "39.049285", "postal": "", "id": "4280539", "aliases": ["topeka, kansas", "topeka, ks", "topeka kansas", "topeka ks", "topeka, kansas", "topeka, ks", "topeka, kansas", "topeka, ks"]}
{"city": "Epping", "uzip": "03042", "countrycode": "US", "country": "United States", "longitude": "-71.073359", "countycode": "", "county": "Rockingham County", "parent_id": "-1", "state": "New Hampshire", "radius": 7800, "statecode": "NH", "latitude": "43.034560", "postal": "", "id": "5085913", "aliases": ["epping"]}
{"city": "London", "uzip": "E15 4", "countrycode": "GB", "country": "United Kingdom", "longitude": "0.000190", "countycode": "LND", "county": "Greater London", "parent_id": "2650444", "state": "England", "radius": 800, "statecode": "ENG", "latitude": "51.539841", "postal": "E15 4", "id": "2643743", "aliases": ["baker street", "newham", "white hart lane", "arsenal", "ashburton grove", "buckingham palace", "camden, london", "emirates stadium", "islington", "soho, london", "wimbledon"]}
{"city": "Tyler", "uzip": "75702", "countrycode": "US", "country": "United States", "longitude": "-95.294299", "countycode": "", "county": "Smith County", "parent_id": "6530415", "state": "Texas", "radius": 12900, "statecode": "TX", "latitude": "32.347475", "postal": "", "id": "4738214", "aliases": ["tyler, texas", "tyler, tx", "tyler texas", "tyler tx", "tyler, texas", "tyler, tx", "tyler, texas", "tyler, tx"]}
{"city": "Crown Point", "uzip": "46307", "countrycode": "US", "country": "United States", "longitude": "-87.363169", "countycode": "", "county": "Lake County", "parent_id": "-1", "state": "Indiana", "radius": 6400, "statecode": "IN", "latitude": "41.418540", "postal": "", "id": "4919451", "aliases": ["crown point", "crown point, in", "crown point, indiana", "crown point in", "crown point indiana", "crown point, in", "crown point, indiana", "crown point, in", "crown point, indiana"]}
{"city": "Knightdale", "uzip": "27545", "countrycode": "US", "country": "United States", "longitude": "-78.482234", "countycode": "", "county": "Wake County", "parent_id": "4484425", "state": "North Carolina", "radius": 7000, "statecode": "NC", "latitude": "35.790350", "postal": "", "id": "4474527", "aliases": ["knightdale, nc", "knightdale, north carolina", "knightdale nc", "knightdale north carolina", "knightdale, nc", "knightdale, north carolina", "knightdale, nc", "knightdale, north carolina"]}
{"city": "Evans", "uzip": "30809", "countrycode": "US", "country": "United States", "longitude": "-82.130534", "countycode": "", "county": "Columbia County", "parent_id": "-1", "state": "Georgia", "radius": 5500, "statecode": "GA", "latitude": "33.532195", "postal": "", "id": "4193699", "aliases": ["evans, ga", "evans, georgia", "evans ga", "evans georgia", "evans, ga", "evans, georgia", "evans, ga", "evans, georgia"]}
{"city": "New Bedford", "uzip": "02740", "countrycode": "US", "country": "United States", "longitude": "-70.930869", "countycode": "", "county": "Bristol County", "parent_id": "6487788", "state": "Massachusetts", "radius": 18100, "statecode": "MA", "latitude": "41.637675", "postal": "", "id": "4945121", "aliases": ["new bedford, ma", "new bedford, massachusetts", "new bedford ma", "new bedford massachusetts", "new bedford, ma", "new bedford, massachusetts", "new bedford, ma", "new bedford, massachusetts"]}
{"city": "Schiedam", "uzip": "3111", "countrycode": "NL", "country": "The Netherlands", "longitude": "4.398160", "countycode": "ZH", "county": "Zuid-Holland", "parent_id": "2748826", "state": "", "radius": 4100, "statecode": "", "latitude": "51.918474", "postal": "", "id": "2747596", "aliases": ["schiedam"]}
{"city": "Gardner", "uzip": "66030", "countrycode": "US", "country": "United States", "longitude": "-94.927244", "countycode": "", "county": "Johnson County", "parent_id": "6531714", "state": "Kansas", "radius": 5700, "statecode": "KS", "latitude": "38.811020", "postal": "", "id": "4271935", "aliases": ["gardner, kansas", "gardner, ks", "gardner kansas", "gardner ks", "gardner, kansas", "gardner, ks", "gardner, kansas", "gardner, ks"]}
{"city": "Pontevedra", "uzip": "36001", "countrycode": "ES", "country": "Spain", "longitude": "-8.642799", "countycode": "PO", "county": "Pontevedra", "parent_id": "6516388", "state": "Galicia", "radius": 12900, "statecode": "GA", "latitude": "42.430465", "postal": "", "id": "3113209", "aliases": ["pontevedra"]}
{"city": "Plymouth", "uzip": "48170", "countrycode": "US", "country": "United States", "longitude": "-83.467919", "countycode": "", "county": "Wayne County", "parent_id": "6478380", "state": "Michigan", "radius": 2400, "statecode": "MI", "latitude": "42.371990", "postal": "", "id": "5006059", "aliases": ["plymouth, mi", "plymouth, michigan", "plymouth mi", "plymouth michigan", "plymouth, mi", "plymouth, michigan", "plymouth, mi", "plymouth, michigan"]}
{"city": "Plymouth", "uzip": "55447", "countrycode": "US", "country": "United States", "longitude": "-93.475808", "countycode": "", "county": "Hennepin County", "parent_id": "6516433", "state": "Minnesota", "radius": 7700, "statecode": "MN", "latitude": "45.018811", "postal": "", "id": "5041926", "aliases": ["plymouth, minnesota", "plymouth, mn", "plymouth minnesota", "plymouth mn", "plymouth, minnesota", "plymouth, mn", "plymouth, minnesota", "plymouth, mn"]}
{"city": "Johannesburg", "uzip": "1685", "countrycode": "ZA", "country": "South Africa", "longitude": "28.135165", "countycode": "", "county": "Johannesburg", "parent_id": "8063469", "state": "Gauteng", "radius": 9700, "statecode": "", "latitude": "-25.974588", "postal": "", "id": "993800", "aliases": ["braamfontein", "braamfontein, johannesburg", "johannesburg", "johannesburg south africa", "johannesburg, south africa", "johannesburg, south africa", "johannesburg sa", "johannesburg south africa", "johannesburg | south africa", "johannesburg, rsa", "johannesburg, sa", "johannesburg, south africa", "johannesburg, sa", "johannesburg, south africa", "johannesburgsouth africa", "midrand", "randburg", "sandton", "sandton, johannesburg", "sandton, south africa", "south africa johannesburg", "south africa johannesburg", "south africa, johannesburg", "south africa, johannesburg", "south africajohannesburg", "soweto, johannesburg", "zar johannesburg"]}
{"city": "Medicine Hat", "uzip": "T1A", "countrycode": "CA", "country": "Canada", "longitude": "-110.678094", "countycode": "AB", "county": "Alberta", "parent_id": "6533054", "state": "Alberta", "radius": 8800, "statecode": "AB", "latitude": "50.041070", "postal": "", "id": "6071618", "aliases": ["medicine hat", "medicine hat, ab", "medicine hat, alberta"]}
{"city": "New Bern", "uzip": "28560", "countrycode": "US", "country": "United States", "longitude": "-77.042074", "countycode": "", "county": "Craven County", "parent_id": "6526249", "state": "North Carolina", "radius": 14700, "statecode": "NC", "latitude": "35.108459", "postal": "", "id": "4481682", "aliases": ["new bern", "new bern, nc", "new bern, north carolina", "new bern nc", "new bern north carolina", "new bern, nc", "new bern, north carolina", "new bern, nc", "new bern, north carolina"]}
{"city": "Conshohocken", "uzip": "19428", "countrycode": "US", "country": "United States", "longitude": "-75.300954", "countycode": "", "county": "Montgomery County", "parent_id": "6506299", "state": "Pennsylvania", "radius": 1600, "statecode": "PA", "latitude": "40.079290", "postal": "", "id": "5185267", "aliases": ["conshohocken, pa", "conshohocken, pennsylvania", "conshohocken pa", "conshohocken pennsylvania", "conshohocken, pa", "conshohocken, pennsylvania", "conshohocken, pa", "conshohocken, pennsylvania"]}
{"city": "Hudson", "uzip": "44236", "countrycode": "US", "country": "United States", "longitude": "-81.440394", "countycode": "", "county": "Summit County", "parent_id": "6503247", "state": "Ohio", "radius": 5800, "statecode": "OH", "latitude": "41.242825", "postal": "", "id": "5158164", "aliases": ["hudson, oh", "hudson, ohio", "hudson oh", "hudson ohio", "hudson, oh", "hudson, ohio", "hudson, oh", "hudson, ohio"]}
{"city": "Darien", "uzip": "06820", "countrycode": "US", "country": "United States", "longitude": "-73.482424", "countycode": "", "county": "Fairfield County", "parent_id": "6486605", "state": "Connecticut", "radius": 5800, "statecode": "CT", "latitude": "41.065365", "postal": "", "id": "4832425", "aliases": ["darien, connecticut", "darien, ct", "darien connecticut", "darien ct", "darien, connecticut", "darien, ct", "darien, connecticut", "darien, ct"]}
{"city": "Mesquite", "uzip": "75149", "countrycode": "US", "country": "United States", "longitude": "-96.602149", "countycode": "", "county": "Dallas County", "parent_id": "6511237", "state": "Texas", "radius": 11000, "statecode": "TX", "latitude": "32.783455", "postal": "", "id": "4710826", "aliases": ["mesquite, texas", "mesquite, tx", "mesquite texas", "mesquite tx", "mesquite, texas", "mesquite, tx", "mesquite, texas", "mesquite, tx"]}
{"city": "Mesquite", "uzip": "89027", "countrycode": "US", "country": "United States", "longitude": "-114.067219", "countycode": "", "county": "Clark County", "parent_id": "6528249", "state": "Nevada", "radius": 12600, "statecode": "NV", "latitude": "36.803930", "postal": "", "id": "5508180", "aliases": ["mesquite", "mesquite, nevada", "mesquite, nv", "mesquite nevada", "mesquite nv", "mesquite, nevada", "mesquite, nv", "mesquite, nevada", "mesquite, nv"]}
{"city": "Castle Rock", "uzip": "80104", "countrycode": "US", "country": "United States", "longitude": "-104.859959", "countycode": "", "county": "Douglas County", "parent_id": "6516863", "state": "Colorado", "radius": 9000, "statecode": "CO", "latitude": "39.375915", "postal": "", "id": "5416329", "aliases": ["castle rock, co", "castle rock, colorado", "castle rock co", "castle rock colorado", "castle rock, co", "castle rock, colorado", "castle rock, co", "castle rock, colorado"]}
{"city": "Jackson", "uzip": "39204", "countrycode": "US", "country": "United States", "longitude": "-90.209190", "countycode": "", "county": "Hinds County", "parent_id": "4425270", "state": "Mississippi", "radius": 100, "statecode": "MS", "latitude": "32.294689", "postal": "39204", "id": "4431410", "aliases": ["jackson, mississippi", "jackson, ms", "jackson mississippi", "jackson ms", "jackson state university", "jackson, mississippi", "jackson, ms", "jackson, mississippi", "jackson, ms"]}
{"city": "High Wycombe", "uzip": "HP13 6", "countrycode": "GB", "country": "United Kingdom", "longitude": "-0.747389", "countycode": "BKM", "county": "Buckinghamshire", "parent_id": "6530168", "state": "England", "radius": 6700, "statecode": "ENG", "latitude": "51.629405", "postal": "", "id": "2646914", "aliases": ["high wycombe", "high wycombe, buckinghamshire", "high wycombe, buckinghamshire, united kingdom", "high wycombe, england", "high wycombe, uk"]}
{"city": "York", "uzip": "YO23 1", "countrycode": "GB", "country": "United Kingdom", "longitude": "-1.083427", "countycode": "NYK", "county": "North Yorkshire", "parent_id": "6533205", "state": "England", "radius": 18900, "statecode": "ENG", "latitude": "53.953339", "postal": "", "id": "2633352", "aliases": ["york", "york, england", "york, north yorkshire", "york, uk", "york, united kingdom"]}
{"city": "", "uzip": "", "countrycode": "US", "country": "United States", "longitude": "-123.500343", "countycode": "", "county": "", "parent_id": "5742126", "state": "Oregon", "radius": 300200, "statecode": "OR", "latitude": "43.935345", "postal": "", "id": "5744337", "aliases": ["or", "oregon", "oregon coast", "oregon, usa", "southern oregon"]}
{"city": "Aberdeen", "uzip": "57401", "countrycode": "US", "country": "United States", "longitude": "-98.487324", "countycode": "", "county": "Brown County", "parent_id": "6530255", "state": "South Dakota", "radius": 7500, "statecode": "SD", "latitude": "45.459090", "postal": "", "id": "5225857", "aliases": ["aberdeen, sd", "aberdeen, south dakota", "aberdeen sd", "aberdeen south dakota", "aberdeen, sd", "aberdeen, south dakota", "aberdeen, sd", "aberdeen, south dakota"]}
{"city": "Aberdeen", "uzip": "21001", "countrycode": "US", "country": "United States", "longitude": "-76.163034", "countycode": "", "county": "Harford County", "parent_id": "4370210", "state": "Maryland", "radius": 4300, "statecode": "MD", "latitude": "39.510460", "postal": "", "id": "4346913", "aliases": ["aberdeen, maryland", "aberdeen, md", "aberdeen maryland", "aberdeen md", "aberdeen, maryland", "aberdeen, md", "aberdeen, maryland", "aberdeen, md"]}
{"city": "McKeesport", "uzip": "15132", "countrycode": "US", "country": "United States", "longitude": "-79.865414", "countycode": "", "county": "Allegheny County", "parent_id": "-1", "state": "Pennsylvania", "radius": 4100, "statecode": "PA", "latitude": "40.351495", "postal": "", "id": "5200499", "aliases": ["mckeesport"]}
{"city": "Aberdeen", "uzip": "98520", "countrycode": "US", "country": "United States", "longitude": "-123.815980", "countycode": "", "county": "Grays Harbor County", "parent_id": "5804891", "state": "Washington", "radius": 10000, "statecode": "WA", "latitude": "46.975867", "postal": "", "id": "5785243", "aliases": ["aberdeen, wa", "aberdeen, washington", "aberdeen wa", "aberdeen washington", "aberdeen, wa", "aberdeen, washington", "aberdeen, wa", "aberdeen, washington"]}
{"city": "Aberdeen", "uzip": "83210", "countrycode": "US", "country": "United States", "longitude": "-112.838754", "countycode": "", "county": "Bingham County", "parent_id": "-1", "state": "Idaho", "radius": 1400, "statecode": "ID", "latitude": "42.944620", "postal": "", "id": "5583714", "aliases": ["aberdeen"]}
{"city": "Orlando", "uzip": "32801", "countrycode": "US", "country": "United States", "longitude": "-81.377389", "countycode": "", "county": "Orange County", "parent_id": "6533168", "state": "Florida", "radius": 29200, "statecode": "FL", "latitude": "28.538235", "postal": "", "id": "4167147", "aliases": ["orlando", "orlando, fl", "orlando, florida", "orlando fl", "orlando florida", "orlando, fl", "orlando, florida", "orlando, fl", "orlando, florida", "ucf", "university of central florida"]}
{"city": "Brandon", "uzip": "R7A", "countrycode": "CA", "country": "Canada", "longitude": "-99.962014", "countycode": "MB", "county": "Manitoba", "parent_id": "6526257", "state": "Manitoba", "radius": 10500, "statecode": "MB", "latitude": "49.847690", "postal": "", "id": "5907896", "aliases": ["brandon, manitoba", "brandon, mb"]}
